,Unnamed: 0,id,name,state,city,latitude,longitude,license_type,address,rating,reviews_count,zip_code,web_url,retailer_services,phone,adult_use_cultivation,adult_use_nonstorefront,adult_use_retail,distributor,medical_cultivation,medical_nonstorefront,medical_retail,microbusiness
11,11,50268,Lytt,CA,Pacifica,37.634507,-122.4918,medical,1905 Palmetto Ave. Unit B,4.0,104,94044,https://weedmaps.com/dispensaries/surefyre,storefront,0000000000,,,,,,,,
14,14,60567,Harvest of Napa (Newly Opened),CA,Napa,38.297243,-122.301418,medical,2449 Second Street,3.0,10,94559,https://weedmaps.com/dispensaries/harvest-of-napa,storefront,707.210.2271,,,,,,,,
15,15,49957,Mendocino Organics,CA,Vallejo,38.109695,-122.253425,medical,539 A Tennessee ST,3.0,11,94590,https://weedmaps.com/dispensaries/mendocino-organics-2,storefront,(707)652-5018,,,,,,,,
16,16,20208,Fly Fast Delivery - Richmond,CA,Richmond,37.964331,-122.318325,medical,,4.0,196,94841,https://weedmaps.com/deliveries/fly-fast-delivery,delivery,(510) 776-2965,,,,,,,,
22,22,57685,East Bay Therapeutics,CA,Emeryville,37.838307,-122.290292,hybrid,5745 Peladeau Street,4.0,191,94608,https://weedmaps.com/dispensaries/east-bay-therapeutic,storefront,(510) 925-1266,,,A100000368,,,,M100000420,
23,23,52646,Phog Center,CA,Pacifica,37.631547,-122.492719,medical,2270 Palmetto Ave,4.0,104,94044,https://weedmaps.com/dispensaries/emerald-phog-san-bruno,storefront,844-504-8771,,,,,,,C1018000012010,
27,27,54343,ME Dispensary,CA,El Sobrante,37.965296,-122.31428000000001,medical,3823 San Pablo Dam Rd,3.0,5,94803,https://weedmaps.com/dispensaries/me-dispensary,storefront,510-758-3269,,,,,,,,
28,28,3509,E-leaf,CA,San Rafael,37.974565999999996,-122.53853899999999,medical,,4.0,76,94901,https://weedmaps.com/deliveries/better-buds-2-5,delivery,415-943-1420,,,,,,,,
32,32,3136,Purple Buddha - Vallejo,CA,Vallejo,38.104805999999996,-122.24356,medical,,3.0,60,94517,https://weedmaps.com/deliveries/purple-buddha-2-4,delivery,925-993-8180,,,,,,,,
33,33,38967,MINT XPRESS - S. San Francisco,CA,San Francisco,37.656921999999994,-122.454226,hybrid,,3.0,8,94015,https://weedmaps.com/deliveries/mint-xpress-s-san-francisco,delivery,(650) 285-1601,,,,,,,,
38,38,37204,SoCo's Finest,CA,Santa Rosa,38.422281,-122.668332,medical,,4.0,276,95401,https://weedmaps.com/deliveries/soco-s-finest,delivery,(707)800-8733,,,,,,,TBA,
39,39,14839,Citius Group,CA,San Francisco,37.729763,-122.44166499999999,medical,,4.0,288,94015,https://weedmaps.com/deliveries/citius-group,delivery,(415)686-7492,,,,,,,,
40,40,28014,MarinMedz,CA,San Rafael,37.935973,-122.53344399999999,medical,,4.0,39,94901,https://weedmaps.com/deliveries/marinmedz,delivery,415-434-1700,,,,,,,,
44,44,28399,VHHC Delivery,CA,Vallejo,38.113989000000004,-122.257939,hybrid,,3.0,5,94590,https://weedmaps.com/deliveries/bam-delivery,delivery, (707) 652-5018,,,,,,,,
60,60,20451,Golden Gate Holistics,CA,Pinole,38.00428,-122.29853,medical,,4.0,198,94547,https://weedmaps.com/deliveries/golden-gate-holistics,delivery,707-771-4103 ,,,,,,,C4092420,
62,62,350,Green Line Delivery,CA,Daly City,37.667568,-122.47592900000001,medical,,4.0,24,94015,https://weedmaps.com/deliveries/green-bay-delivery-free-8th-w-purchase-of-1-2oz,delivery,(650)257-0313,,,,,,,,
66,66,44342,VHHC Delivery - Napa,CA,Napa,38.304108,-122.289422,medical,,1.0,1,94559,https://weedmaps.com/deliveries/vhhc-delivery-napa,delivery, (707) 652-5018,,,,,,,,
71,71,33824,High Trees - San Francisco,CA,San Francisco,37.743142999999996,-122.47358700000001,medical,,4.0,254,94116,https://weedmaps.com/deliveries/high-trees-sf,delivery,9252940725,,,,,,,,
72,72,43433,420 Super Budz,CA,Richmond,37.931915999999994,-122.32302800000001,medical,,4.0,17,94805,https://weedmaps.com/deliveries/420-super-budz,delivery,(510) 978-6310,,,,,,,,
77,77,45518,Urban Bloom,California,Richmond,37.945547999999995,-122.329851,medical,,5.0,6,94530,https://weedmaps.com/deliveries/urban-bloom,delivery,510-776-6122,,,,,,,,
81,81,42831,Mountain Lion Delivery,CA,Berkeley,37.858912,-122.26416100000002,hybrid,,5.0,5,94705,https://weedmaps.com/deliveries/mountain-lion-delivery-2,delivery,(510) 878-7462,,A9180000102 ,,,,,,
83,83,26326,Natures Fire,CA,South San Francisco,37.654926,-122.403406,medical,,4.0,27,94080,https://weedmaps.com/deliveries/natures-fire,delivery,(800)432-0839,,,,,,,,
84,84,44485,Higher Connection,California,Rohnert Park,38.345786,-122.685498,medical,,5.0,11,94928,https://weedmaps.com/deliveries/higher-connection,delivery,(707)571-9749,,,,,,,,
86,86,15467,Hii-Timez Delivery - Richmond,CA,Berkeley,37.93541,-122.32524199999999,medical,,4.0,84,94706,https://weedmaps.com/deliveries/hii-timez-delivery,delivery,(510) 860-8387,,,,,,,,
89,89,29970,Citius Group,CA,San Francisco,37.709161,-122.45326999999999,medical,,4.0,92,94112,https://weedmaps.com/deliveries/citius-group-4,delivery,(415) 686-7492,,,,,,,,
91,91,30373,Fly Fast Delivery - Berkeley,CA,Berkeley,37.898919,-122.30919899999999,medical,,4.0,17,94530,https://weedmaps.com/deliveries/fly-fast-delivery-berkeley,delivery,(510) 776-2965,,,,,,,,
93,93,33827,High Trees - South San Francisco,CA,South San Francisco,37.655915,-122.437096,medical,,4.0,246,94080,https://weedmaps.com/deliveries/high-trees-sfsouth,delivery,9252940725,,,,,,,,
95,95,30226,Kine2b,CA,Fairfax,37.987406,-122.59047,medical,,4.0,6,94930,https://weedmaps.com/deliveries/kine2b,delivery,415-505-7066,,,,,,,,
96,96,17464,Smoakland - Oakland,CA,Oakland,37.843961,-122.247973,recreational,,4.0,231,94601,https://weedmaps.com/deliveries/smoakland-oakland,delivery,510-513-9570,,#: C9180000095,,,,,,
97,97,4033,MediGreen Express,California,San Bruno,37.628961,-122.40702900000001,medical,,4.0,91,94066,https://weedmaps.com/deliveries/medi-green-express,delivery,(415) 304-2582,,,,,,,,
98,98,1274,The Strain Train,California,Berkeley,37.865001,-122.273431,medical,,4.0,119,94703,https://weedmaps.com/deliveries/the-strain-train-2,delivery,(510) 706 - 7294,,,,,,,,
99,99,44558,Premier Budz - Vallejo,CA,Vallejo,38.105096,-122.25485400000001,medical,,5.0,13,94590,https://weedmaps.com/deliveries/premier-budz-vallejo,delivery,(408) 444-0898,,,,,,,,
108,108,2243,Triple C Collective,CA,Clearlake,38.9552299,-122.64705020000001,medical,14196 Lakeshore Dr,3.0,55,95422,https://weedmaps.com/dispensaries/triple-c-collective,storefront,707-701-4160,,,A10180000114,,,,M10180000412,
109,109,43964,Roze City,CA,PASADENA,34.140204,-118.07368500000001,recreational,365 South Rosemead Blvd,4.0,3651,91107,https://weedmaps.com/dispensaries/nhc-natural-health,storefront,(626) 460-2129,,,,,,,,
110,110,54926,Univerde,CA,Covina,34.106742,-117.859427,medical,Call for Address,4.0,3863,91724,https://weedmaps.com/dispensaries/univerde,storefront,562-565-9749,,,,,,,,
111,111,55520,Love Faith and Unity,CA,Bloomington,34.037822999999996,-117.39583300000001,medical,11923 Cedar Ave,4.0,7233,92316,https://weedmaps.com/dispensaries/love-faith-and-unity,storefront,909-347-5771,,,,,,,,
112,112,54791,Grande Vista 15 CAP,CA,Los Angeles,34.018347,-118.20993100000001,medical,1462 South Grande Vista Ave,4.0,2030,90023,https://weedmaps.com/dispensaries/grande-vista-20-cap,storefront,323-335-8059,,,,,,,,
114,114,56081,Weedmart 30 Cap,CA,Arcadia,34.11051,-118.006864,medical,4430 Live Oak Ave,4.0,2047,91006,https://weedmaps.com/dispensaries/weedmart-30-cap,storefront,626-956-7723,,,,,,,,
115,115,45932,Lights Out Wellness,CA,Rosamond,34.861377000000005,-118.16408,medical,1739 Poplar Street,4.0,2964,93560,https://weedmaps.com/dispensaries/ligthts-out-wellness,storefront,  661-279-5250 ,,,,,,,,
116,116,59410,The Pottery Barn,ca,San Bernardino,34.136368,-117.336548,medical,2130 W Highland Ave,4.0,935,92407,https://weedmaps.com/dispensaries/sb-collective,storefront,951-420-6196,,,,,,,,
117,117,58843,TALLY CANNABIS,CALIFORNIA,AZUSA,34.10719,-117.92478500000001,medical,1150 ARROW HIGHWAY,4.0,334,91702,https://weedmaps.com/dispensaries/tally-cannabis,storefront,626-491-7070,,,,,,,,
119,119,59459,ROLLIN LOUD,Ca,Rowland Heights,33.988597,-117.90366000000002,medical,18405 Colima Rd,4.0,53,91748,https://weedmaps.com/dispensaries/the-joint-la-puente,storefront,(626) 489-9713,,,,,,,,
120,120,61519,Pomona Medz,CA,Pomona,34.062024,-117.75849699999999,medical,570 W Holt Ave.,4.0,56,91768,https://weedmaps.com/dispensaries/pomona-medz,storefront,9093741073,,,,,,,,
121,121,957,TriComb Therapies - Victorville,CA,Victorville,34.471388,-117.29611499999999,medical,,4.0,1919,92395,https://weedmaps.com/deliveries/tricomb-therapies,delivery,(760) 490-6689,,,,,,,,
122,122,9765,The Stash Spot,CA,Apple Valley,34.464859999999994,-117.24276499999999,medical,,4.0,1077,92307,https://weedmaps.com/deliveries/the-stash-spot-2,delivery,7605779102,,,,,,,,
123,123,2650,BudEx Delivery,CA,San Gabriel Valley,34.148639,-118.038595,medical,,4.0,531,91801,https://weedmaps.com/deliveries/budex-4,delivery,626-425-0432,,,,,,,,
124,124,3092,BudEx Delivery - Ontario / Montclair,CA,Ontario,34.063745000000004,-117.6443,medical,,4.0,998,91762,https://weedmaps.com/deliveries/budex-delivery-2-3,delivery,626-425-0432,,,,,,,,
125,125,40107,Peoples Grower - Rancho Cucamonga,CA,Rancho Cucamonga,34.113881,-117.555371,hybrid,,4.0,167,91730,https://weedmaps.com/deliveries/peoples-grower-2,delivery,951-200-2088,,,,,,,,
126,126,434,THRC - The Honor Roll Collective,CA,El Monte,34.085133,-118.019552,medical,,4.0,227,91732,https://weedmaps.com/deliveries/the-honor-roll-tc,delivery,(626) 272-4247,,,,,,,,
127,127,2068,THRC,CA,Pasadena,34.14982,-118.100131,medical,,4.0,106,91107,https://weedmaps.com/deliveries/the-honor-roll-collective-2-2,delivery,(626) 272-4247,,,,,,,,
128,128,41901,Goldleaf Industries,CA,Hesperia,34.422614,-117.30880400000001,medical,,4.0,187,92345,https://weedmaps.com/deliveries/goldleaf-industries-2,delivery,(760) 205-8300,,,,,,,,
129,129,40110,Hello Cannabis,CA,Upland,34.139790000000005,-117.651334,medical,,4.0,144,91784,https://weedmaps.com/deliveries/luckys-health-group-upland-claremont,delivery,951-434-5347,,,,,,,,
130,130,38259,Peoples Grower - Diamond Bar,CA,Diamond Bar,33.974671,-117.83716899999999,hybrid,,4.0,133,91765,https://weedmaps.com/deliveries/peoples-grower,delivery,951-200-2088,,,,,,,,
131,131,23570,Loilty Caregivers,CA,La Puente/West Covina,34.042747999999996,-117.96445700000001,medical,,4.0,348,91744,https://weedmaps.com/deliveries/4-remedies,delivery,6262951638,,,,,,,,
132,132,23043,OG Pharmacy,CA,Chino Hills,34.002992,-117.745974,medical,,4.0,296,91709,https://weedmaps.com/deliveries/og-pharmacy-2-3,delivery,626-991-6909,,,,,,,,
133,133,3347,The Honor Roll Collective,CA,Glendora,34.136058,-117.86546899999999,medical,,4.0,113,91741,https://weedmaps.com/deliveries/the-honor-roll-collective-2-6,delivery,(626) 272-4247,,,,,,,,
134,134,41083,Hello Cannabis,CA,Fontana,34.139523,-117.468773,medical,,4.0,241,92336,https://weedmaps.com/deliveries/luckys-health-group-14,delivery,951-434-5423,,,,,,,,
135,135,20500,So Cal Members,CA,San Dimas,34.106712,-117.79456,medical,,4.0,77,91773,https://weedmaps.com/deliveries/so-cal-members-2,delivery,909-269-6783,,,,,,,,
136,136,3294,The Honor Roll Collective,CA,West Covina,34.068839000000004,-117.938147,medical,,4.0,146,91790,https://weedmaps.com/deliveries/the-honor-roll-collective-2-5,delivery,(626) 272-4247,,,,,,,,
137,137,438,4 Twenty,CA,Rialto,34.106778000000006,-117.370275,medical,,4.0,428,92376,https://weedmaps.com/deliveries/med-vend-upland-delivery-service,delivery,9518008228,,,,,,,,
138,138,42584,At Your Service,CA,Eastvale,33.97546,-117.56694499999999,medical,,5.0,28,92880,https://weedmaps.com/deliveries/at-your-service,delivery,(951) 532-1589,,,,,,,,
139,139,46023,TLG Delivery,CA,Antelope Valley,34.580725,-118.085131,medical,,4.0,23,93550,https://weedmaps.com/deliveries/tlg-delivery,delivery,424-302-6363,,,,,,,,
140,140,26533,KUSHAGRAM,CA,Montebello,34.032945,-118.130023,medical,,4.0,46,90022,https://weedmaps.com/deliveries/kushagram-east-la,delivery,3237391134,,,,,,,,
141,141,57327,Whittier Treehouse,CA,Whittier,33.990579,-118.065524,medical,10608 Whittier Blvd,4.0,1284,90606,https://weedmaps.com/dispensaries/the-church,storefront,1-562-378-9886,,,,,,,,
142,142,60770,Smokin Hot Healing Groups,CA,Covina,34.106105,-117.851881,medical,Call for Address,4.0,1466,91724,https://weedmaps.com/dispensaries/smokin-hot-healing-groups,storefront,626-347-0333,,,,,,,,
143,143,49566,UNDEFEATED 25,CA,Pasadena,34.144443,-118.126922,medical,1136 East Green Street,4.0,1896,91106,https://weedmaps.com/dispensaries/dannk-city,storefront,(626) 638-5478,,,,,,,,
144,144,57086,Azusa Herbal Center,CA,Azusa,34.133765000000004,-117.920277,medical,Text For Address !!!,4.0,753,91702,https://weedmaps.com/dispensaries/herbal-center,storefront,626-818-8239,,,,,,,,
145,145,59673,AFU 30 CAP,CA,Alhambra,34.076856,-118.15480900000001,medical,2837 W Valley Blvd,4.0,152,91803,https://weedmaps.com/dispensaries/alhambra-faith-and-unity,storefront,(626) 703-3129,,,,,,,,
146,146,59646,The Bakery San Bernardino,CA,San Bernardino,34.097161,-117.28936200000001,medical,261 S Arrowhead Ave,4.0,419,92408,https://weedmaps.com/dispensaries/san-bernardino-gas-staion,storefront,(909) 751-6047,,,,,,,,
147,147,60638,House of OG's,California,Los Angeles,34.041383,-118.169009,hybrid,428 North Ford Blvd,4.0,58,90022,https://weedmaps.com/dispensaries/house-of-ogs,storefront,(323) 404-4508,,,,,,,,
148,148,60843,Trees R Us,CA,Arcadia,34.109888,-118.01405700000001,medical,4123 Live Oak Ave,4.0,55,91006,https://weedmaps.com/dispensaries/trees-r-us-2,storefront,626-701-0882,,,,,,,,
149,149,60618,Pomona Church of Tranquility,California,Pomona,34.049263,-117.75021399999999,medical,1135 South Garey,4.0,158,91766,https://weedmaps.com/dispensaries/pomona-church-of-tranquility,storefront,909-723-0864,,,,,,,,
150,150,59893,La Puente Church of Healing & Purity,CA,La Puente,34.005646,-117.900446,medical,18435 E. Valley Blvd,4.0,79,91744,https://weedmaps.com/dispensaries/la-puente-church-of-healing-purity,storefront,626-341-7013,,,,,,,,
151,151,22970,5 Star Delivery,California,Montebello,34.014846,-118.13015700000001,medical,,4.0,1903,90640,https://weedmaps.com/deliveries/caliverde,delivery,323-240-9957,,,,,,,,
152,152,2750,Buddies Med Express,Ca,Covina,34.101637,-117.86053999999999,medical,,4.0,1470,91744,https://weedmaps.com/deliveries/budex-delivery-2-2,delivery,626-238-8784,,,,,,,,
153,153,10987,Green Tree Remedy,CA,Highland Park,34.120531,-118.20109599999999,medical,,4.0,756,90042,https://weedmaps.com/deliveries/exclusive-35-cap-2-3,delivery,323-672-0331,,,,,,,,
154,154,42196,WeedBell Delivery,CA,Jurupa valley,33.992739,-117.505875,medical,,4.0,1177,91752,https://weedmaps.com/deliveries/weedbell-open-late-7,delivery,(909)359-8432,,,,,,,,
155,155,12511,The Stash Spot - Victorville,CA,Victorville,34.471506,-117.32996999999999,medical,,4.0,724,92395,https://weedmaps.com/deliveries/the-stash-spot-2-2,delivery,7605779102,,,,,,,,
156,156,6698,Best Remedy,CA,La verne / San Dimas,34.105195,-117.76839299999999,medical,,4.0,484,91750,https://weedmaps.com/deliveries/best-remedy-2-4,delivery,626-371-5321,,,,,,,,
157,157,14774,Best Remedy,CA,Azusa,34.133534999999995,-117.90003899999999,medical,,4.0,184,91702,https://weedmaps.com/deliveries/best-remedy-2-8,delivery,626-371-5321,,,,,,,,
158,158,591,SGV MED EXPRESS,ca,Anywhere in SGV,34.092115,-118.026367,medical,,4.0,635,91780,https://weedmaps.com/deliveries/sgv-med-express-626-200-3587,delivery,626-200-3587,,,,,,,,
159,159,28921,The Peoples Grower - Chino,CA,Chino,33.997147,-117.715296,hybrid,,4.0,183,91709,https://weedmaps.com/deliveries/the-peoples-grower-3,delivery,951-200-2088,,,,,,,,
160,160,413,The Honor Roll Collective,CA,San Gabriel Valley,34.121857299999995,-118.02485,medical,,4.0,247,91006,https://weedmaps.com/deliveries/the-honor-roll-collective,delivery,(626) 272-4247,,,,,,,,
161,161,39673,Hello Cannabis,CA,Diamond Bar,33.999990999999994,-117.84418400000001,medical,,4.0,93,91789,https://weedmaps.com/deliveries/luckys-health-group-pomona-diamond-bar,delivery,951-434-3928,,,,,,,,
162,162,10484,Green Tree Remedy,CA,Pasadena,34.157819,-118.147997,medical,,4.0,163,91105,https://weedmaps.com/deliveries/exclusive-35-cap-2-2,delivery,323-672-0331,,,,,,,,
163,163,39674,Hello Cannabis,CA,Ontario,34.073941999999995,-117.57176799999999,medical,,4.0,144,91762,https://weedmaps.com/deliveries/luckys-health-group-ontario,delivery,951-318-7716,,,,,,,,
164,164,37302,Green Tree Remedy,Ca,La puente,34.030728,-117.958546,medical,,4.0,139,91744,https://weedmaps.com/deliveries/green-tree-remedy-la-puente,delivery,213-276-0000,,,,,,,,
165,165,40109,Hello Cannabis,CA,Rancho Cucamonga / Alta Loma,34.112945,-117.53715700000001,medical,,4.0,186,91730,https://weedmaps.com/deliveries/luckys-health-group-rancho-cucamonga-alta-loma,delivery,951-434-5423,,,,,,,,
166,166,34642,Green Tree Remedy,CA,Colton,34.08813,-117.36598400000001,medical,,4.0,186,92316,https://weedmaps.com/deliveries/green-tree-remedy-7,delivery,2132760005,,,,,,,,
167,167,15386,The Stash Spot,CA,Hesperia,34.433228,-117.33153999999999,medical,,4.0,74,92345,https://weedmaps.com/deliveries/the-stash-spot-2-3,delivery,7605779102,,,,,,,,
168,168,398,4 Twenty,CA,Fontana,34.106636,-117.44813500000001,medical,,4.0,220,92336,https://weedmaps.com/deliveries/medvend-collective-sc-lab-tested-we-always-answer-our-phone-happy-hour-daily,delivery,9518008228,,,,,,,,
169,169,42227,Peoples Grower - Upland,CA,Upland,34.13,-117.64,hybrid,,4.0,61,91784,https://weedmaps.com/deliveries/peoples-grower-upland,delivery,(951) 200-2088,,,,,,,,
170,170,34774,Foreign Resources,CA,Palmdale,34.574064,-118.098206,medical,,4.0,155,93534,https://weedmaps.com/deliveries/bandit-delivery-service,delivery,4242987145,,,,,,,,
172,172,49363,Hacienda Med Center,CA,Hacienda Heights,34.008373,-117.95668,medical,16044 Gale Avenue,4.0,4940,91745,https://weedmaps.com/dispensaries/hacienda-med-center,storefront,626-433-7446,,,,,,,,
173,173,46852,Green Love,CA,Pasadena,34.169025,-118.111824,medical,1874 E Washington Blvd,4.0,7340,91104,https://weedmaps.com/dispensaries/green-love-2,storefront,(626)314-2522,,,,,,,,
174,174,54283,Holy 7th Heaven,CA,Los Angeles,33.982284,-118.24150300000001,medical,1747 E. Gage Ave.,4.0,579,90001,https://weedmaps.com/dispensaries/7th-heaven,storefront,323-639-3316,,,,,,,,
175,175,50978,BEST OF BUDDHA,CA,Whittier,33.972388,-118.070748,medical,7923 Duchess Drive,4.0,1635,90606,https://weedmaps.com/dispensaries/best-of-the-best,storefront,714-616-2771,,,,,,,,
176,176,49552,Westpoint Medicinal,CA,Covina,34.106355,-117.853974,medical,20504 E Arrow Highway,4.0,3114,91724,https://weedmaps.com/dispensaries/westpoint-medicinal,storefront,626-671-0465,,,,,,,,
177,177,60455,Dank of America,California,San Bernardino,34.127553000000006,-117.27906200000001,medical,1520 N Waterman Ave,4.0,284,92404,https://weedmaps.com/dispensaries/dank-bank-1,storefront,9092189660,,,,,,,,
179,179,59899,Smoke Break,California,Pomona,34.05509,-117.7621,medical,CALL For Address !!!,4.0,648,91766,https://weedmaps.com/dispensaries/smoke-break,storefront,714-350-2586,,,,,,,,
180,180,61325,Casa De Flor,CA,Rosemead,34.048468,-118.097718,medical,1630 Potrero Grande Dr,4.0,49,91770,https://weedmaps.com/dispensaries/casa-de-flor,storefront,(626) 316-8751,,,,,,,,
182,182,61335,Secret Stash,California,East Los Angeles,34.031515999999996,-118.15285700000001,medical,5230 E. Beverly Blvd,3.0,15,90022,https://weedmaps.com/dispensaries/secret-stash-10,storefront,323.840.4895,,,,,,,,
183,183,691,AGC Delivery,CA,Antelope Valley,34.645913,-118.153218,medical,,4.0,609,93534,https://weedmaps.com/deliveries/advanced-genetics-collective,delivery,661-524-0800,,,,,,,,
185,185,6695,Best Remedy,CA,Upland,34.11065,-117.660924,medical,,4.0,633,91786,https://weedmaps.com/deliveries/best-remedy-2-2,delivery,626-371-5321,,,,,,,,
186,186,2683,Buddies Med Express,California,San Gabriel Valley,34.072003,-118.07151100000002,medical,,4.0,720,91016,https://weedmaps.com/deliveries/buddies-med-express-2-3,delivery,626-238-8784,,,,,,,,
187,187,14778,Buddies Med Express,CA,Chino,33.997269,-117.689107,medical,,4.0,444,91709,https://weedmaps.com/deliveries/buddies-med-exress-2,delivery,626-238-8784,,,,,,,,
188,188,6762,Mellow Martian - Azusa/Covina,CA,Azusa,34.121021,-117.900405,medical,,4.0,415,91702,https://weedmaps.com/deliveries/mellow-martian-2,delivery,626-720-9344,,,,,,,,
189,189,30700,Healing Leaf Village,CA,Rialto,34.098526,-117.370245,medical,,4.0,219,92376,https://weedmaps.com/deliveries/healing-leaf-village,delivery,951-437-5363,,,,,,,,
190,190,12320,SGV MED EXPRESS,Ca,San Dimas,34.101821,-117.819878,medical,,4.0,165,91733,https://weedmaps.com/deliveries/sgv-med-express-2-3,delivery,626-200-3587,,,,,,,,
191,191,801,100% Delivery,CA,Hesperia,34.412309,-117.34634199999999,medical,,4.0,434,92345,https://weedmaps.com/deliveries/100-delivery,delivery,760-981-5913,,,,,,,,
192,192,15966,Greencross 40 CAP,CA,Victorville,34.470763,-117.31267199999999,medical,,4.0,555,92392,https://weedmaps.com/deliveries/greencross-40-cap,delivery,760-998-8280 ,,,,,,,,
193,193,34644,Green Tree Remedy,CA,San Bernardino,34.091935,-117.304478,medical,,4.0,292,92410,https://weedmaps.com/deliveries/green-tree-remedy-9,delivery,2132760005,,,,,,,,
194,194,1988,4 Twenty,CA,Rancho Cucamonga,34.109986,-117.587216,medical,,4.0,150,91730,https://weedmaps.com/deliveries/og-world,delivery,9518008228,,,,,,,,
195,195,29070,OG Pharmacy,CA,Pomona,34.047633000000005,-117.810221,medical,,4.0,107,91768,https://weedmaps.com/deliveries/og-pharmacy-pomona,delivery,9094564169,,,,,,,,
196,196,44537,Rolling Up,ca,arcadia,34.13024,-118.02526599999999,medical,,4.0,51,91006,https://weedmaps.com/deliveries/rolling-up-arcadia,delivery,(213) 369-6907,,,,,,,,
197,197,10559,4 Twenty,CA,Ontario,34.066387,-117.658933,medical,,4.0,47,91762,https://weedmaps.com/deliveries/4-twenty,delivery,9518008228,,,,,,,,
198,198,25099,SKY HIGH HOLISTIC DELIVERY,CA,Pasadena,34.124646999999996,-118.136649,medical,,5.0,4,91001,https://weedmaps.com/deliveries/sky-high-holistic-delivery-13,delivery,(626) 423-7246,,,,,,,,
199,199,15931,Rolling Up,CA,West Covina,34.068839000000004,-117.92819540000002,medical,,5.0,3,91793,https://weedmaps.com/deliveries/rolling-up,delivery,(213) 999-2786,,,,,,,,
200,200,25104,SKY HIGH HOLISTIC DELIVERY,CA,La Puente,34.018335,-117.942966,medical,,2.0,7,91744,https://weedmaps.com/deliveries/sky-high-holistic-delivery-18,delivery,(626) 423-7246,,,,,,,,
201,201,23646,CALI RELEAF CHURCH OF MIEN TAO,CA,Alhambra,34.090276,-118.123625,medical,425 S Garfield Ave,4.0,9055,91801,https://weedmaps.com/dispensaries/calireleafcaregivers,storefront,6264180561,,,,,,,,
202,202,54036,HHC,CA,La Puente,34.023771,-117.91751599999999,medical,346 N Azusa,4.0,2403,91744,https://weedmaps.com/dispensaries/hhc-3,storefront,(626)474-7476,,,,,,,,
203,203,50682,OMG,CA,San Bernardino,34.107147999999995,-117.34693,medical,2618 E Foothill Blvd Unit C,4.0,7995,92410,https://weedmaps.com/dispensaries/omg-2-4,storefront,909-586-1806,,,,,,,,
204,204,56737,The Lit Corner,CA,Santa Fe Springs,33.992049,-118.067923,medical,10418 Whittier Blvd,4.0,971,90606,https://weedmaps.com/dispensaries/the-lit-corner,storefront,562-454-2471,,,,,,,,
205,205,11519,Organic Health Solutions,CA,Rosamond,34.864816,-118.154311,medical,1315 W. Rosamond Blvd Suite 1A,4.0,1005,93560,https://weedmaps.com/dispensaries/organic-health-solutions,storefront,661-256-0220,,,,,,,,
206,206,55966,PMG,CA,Pasadena,34.149861,-118.125877,hybrid,1191 E. Walnut St.,4.0,420,91106,https://weedmaps.com/dispensaries/pm-group,storefront,818-406-9086,,,,,,,,
207,207,59175,Santa Fe Greens Bogo House,CA,Huntington Park,33.973071000000004,-118.23064199999999,medical,7327 Santa Fe Ave,4.0,517,90255,https://weedmaps.com/dispensaries/sante-fe-greens,storefront,562-632-2913,,,,,,,,
212,212,20861,Flavors Collective - Porterville,CA,porterville,36.065158000000004,-119.016378,medical,,4.0,197,93257,https://weedmaps.com/deliveries/flavors-collective-2,delivery,559-586-1952,,,,,,,,
213,213,36088,The Chronic inc.,CA,Porterville,36.065948,-119.052324,medical,,4.0,150,93257,https://weedmaps.com/deliveries/the-chronic-inc,delivery,5594835405,,,,,,,,
214,214,42167,Exotics Express,California,Porterville,36.080604,-119.04398,medical,,4.0,27,93257,https://weedmaps.com/deliveries/exotics-express,delivery,(559) 920-6882,,,,,,,,
215,215,45517,The Stimulater Express - Porterville,CA,Porterville,36.069655,-119.03055,medical,,4.0,2,93257,https://weedmaps.com/deliveries/the-stimulater-express-porterville-1,delivery,559-341-7308,,,,,,,,
218,218,23133,Desert Farmacy,CA,Indio,33.724548,-116.230152,medical,,4.0,83,92201,https://weedmaps.com/deliveries/desert-farmacy,delivery,(760)641-6548,,,,,,,,
219,219,61088,Prime,CA,Thermal,33.639831,-116.139201,medical,56295 Grapefruit Blvd.,4.0,38,92274,https://weedmaps.com/dispensaries/prime-2,storefront,323-910-6358,,,,,,,,
220,220,9404,Mojave Med,CA,New Inventory!!,34.135477,-116.08979599999999,medical,,4.0,234,92277,https://weedmaps.com/deliveries/concentrates-and-kind,delivery,760-620-8783,,,,,,,,
221,221,35731,Coachella Valley GREENS,CA,Coachella,33.678251,-116.233972,medical,,4.0,78,92201,https://weedmaps.com/deliveries/coachella-valley-greens-2,delivery,442-235-9872,,,2839202313,,,,,
222,222,33378,G's Finest,CA,Indio,33.685486,-116.199083,medical,,4.0,162,92236,https://weedmaps.com/deliveries/g-s-finest,delivery,760-600-6593,,,,,,,,
223,223,46376,Green Dragon Caregivers,CA,Indio,33.717859000000004,-116.21467700000001,medical,,0.0,0,92201,https://weedmaps.com/deliveries/green-dragon-caregivers-6,delivery,,,,,,,,,
230,230,13416,Empire powered by Safe Access. - Turlock,CA,Turlock,37.521808,-120.835226,hybrid,,4.0,155,95380,https://weedmaps.com/deliveries/supply-co-2-5,delivery,209-589-6475,,,,,,,,
231,231,16156,Empire powered by Safe Access. Riverbank,CA,Riverbank,37.715981,-120.94936399999999,hybrid,,4.0,36,95367,https://weedmaps.com/deliveries/supply-co-2-6,delivery,209-589-6475,,,,,,,,
251,251,26446,Grasshoppers!,CA,Turlock,37.514734000000004,-120.858084,medical,,3.0,17,95382,https://weedmaps.com/deliveries/grasshoppers-4,delivery, 209-502-1750,,,,,,,,
253,253,24500,Grasshoppers!,CA,Manteca,37.799263,-121.210872,medical,,4.0,23,95336,https://weedmaps.com/deliveries/grasshoppers-3,delivery,209-502-1750,,,,,,,,
255,255,17201,Grasshoppers!,CA,Modesto,37.689440000000005,-121.06008700000001,medical,,4.0,66,95356,https://weedmaps.com/deliveries/grasshoppers,delivery,2095021750,,,,,,,,
256,256,4536,THE HEALING CONNECTION - Modesto,CA,Modesto,37.667078000000004,-120.957582,medical,,4.0,491,95355,https://weedmaps.com/deliveries/the-healing-connection-2,delivery,209-581-7806,,,,,,,,
257,257,55484,Highway 33,CA,Crows Landing,37.394079999999995,-121.072602,hybrid,21931 State Highway 33,4.0,528,95313,https://weedmaps.com/dispensaries/highway-33,storefront,(209) 837-7005,,,A10180000193,,,,,
258,258,16479,Los Banos Farmaceutical,CA,Los Banos,37.063918,-120.84013600000002,medical,,4.0,741,93635,https://weedmaps.com/deliveries/los-banos-farmaceutical,delivery,209-704-5743,,,,,,,,
259,259,36139,Merceds Farmaceutical,CA,MERCED CA,37.364925,-120.43217,medical,,4.0,159,95340,https://weedmaps.com/deliveries/merceds-farmaceutical,delivery,209-704-5743,,,,,,,,
260,260,1267,West Coast Alternative Care - Modesto,CA,Modesto,37.638222,-120.96848700000001,medical,,4.0,224,95350,https://weedmaps.com/deliveries/west-coast-alternative-care-2-2,delivery,209-688-5284,,,,,,,,
261,261,2670,Los Banos Sanctuary,CA,Los Banos,37.056761,-120.87811599999999,medical,,4.0,444,93635,https://weedmaps.com/deliveries/los-banos-herbs,delivery,209.704.5964,,,,,,,,
262,262,15245,Purple Orchid Express,CA,Manteca,37.799782,-121.23834,medical,,4.0,45,95207,https://weedmaps.com/deliveries/purple-orchid-express,delivery,2096881201,,,,,,,,
263,263,30242,Smoakland - Modesto,CA,Modesto,37.638664,-121.010332,recreational,,4.0,160,95351,https://weedmaps.com/deliveries/smoakland-modesto,delivery,510-513-9570,,,,,,,,
264,264,29967,IMC,California,Patterson,37.464428000000005,-121.14544599999999,medical,,4.0,49,95363,https://weedmaps.com/deliveries/imc-2,delivery,209-589-4885,,,,,,,,
265,265,30937,Four Rivers Express,CA,Los Banos,37.055429,-120.85417199999999,medical,,4.0,145,93635,https://weedmaps.com/deliveries/four-rivers-express-2,delivery,2092708490,,,,,,,,
267,267,36558,IMC - Modesto,CA,Modesto,37.609201,-120.93843700000001,medical,,3.0,16,95351,https://weedmaps.com/deliveries/imc-modesto,delivery,209-589-4885,,,,,,,,
269,269,43818,Highway 33 - Delivery,CA,Gustine,37.255596000000004,-121.001139,medical,,4.0,5,95322,https://weedmaps.com/deliveries/highway-33-2,delivery,(209) 837-7005,,,,,,,,
271,271,29688,Calaveras Little Trees - Delivery,CA,Copperopolis,37.951757,-120.613377,medical,,5.0,1,95228,https://weedmaps.com/deliveries/calaveras-little-trees,delivery,209-890-3647,,,,,,,,
277,277,4013,The Stash Spot - Barstow,CA,Barstow,34.893190999999995,-117.04749699999999,medical,,4.0,4109,92311,https://weedmaps.com/deliveries/the-stash-spot,delivery,(760) 590-8850,,,,,,,,
278,278,10632,Mojave Med,CA,Yucca Valley,34.134975,-116.369722,medical,,4.0,683,92252,https://weedmaps.com/deliveries/mojave-medical-cultivators-club,delivery,760-620-8783,,,,,,,,
279,279,402,"TLC Delivery, Inc - Lake Arrowhead",CA,Lake Arrowhead,34.248538,-117.189548,medical,,4.0,397,92352,https://weedmaps.com/deliveries/the-lima-collective-inc-lake-arrowhead,delivery,(909) 939-0551,,,,,,,,
280,280,815,Holistic Approach Wellness - Yucaipa,CA,Yucaipa,34.027524,-117.11801799999999,medical,,4.0,56,92399,https://weedmaps.com/deliveries/holistic-approach-wellness-redlands,delivery,909-795-8182,,,,,,,,
281,281,6934,Green Rush Extracts - Redland / Mentone,CA,Redlands,34.058108000000004,-117.15963,medical,,4.0,274,92373,https://weedmaps.com/deliveries/green-rush-extracts,delivery,909-435-1057,,,,,,,,
282,282,29,SkyHighmeds Delivery,CA,Big Bear City,34.259487,-116.875827,medical,,4.0,107,92314,https://weedmaps.com/deliveries/skyhigh-meds-bigbear,delivery,909-SKY-HIGH,,,,,,,,
283,283,20781,Jah Healing Kemetic Temple of The Divine Church,CA,Big Bear,34.24803,-116.896648,medical,,4.0,213,92314,https://weedmaps.com/deliveries/jah-healing-caregivers-2-2-3-2-2-2,delivery,909-528-5839,,,,,,,,
284,284,21297,Beach House Collective,CA,Yucca Valley,34.1546,-116.4026,medical,,4.0,189,92284,https://weedmaps.com/deliveries/beach-house-collective,delivery,760-401-5141,,,,,,,,
285,285,46316,CaliWay Delivery,CA,Relands,34.052083,-117.180275,medical,,4.0,15,90001,https://weedmaps.com/deliveries/caliway-delivery-4,delivery,9095876847,,,,,,,,
286,286,10063,"TLC Delivery, Inc- Arrowbear",CA,Arrowbear Lake,34.203925,-117.08831200000002,medical,,4.0,42,92382,https://weedmaps.com/deliveries/tlc-delivery-inc,delivery,(909) 939-0551,,,,,,,,
287,287,54988,Jah Healing Kemetic Temple of The Divine Church,CA,Big Bear,34.260944,-116.843374,medical,208 E Big Bear Blvd,4.0,118,92314,https://weedmaps.com/dispensaries/jah-healing-kemetic-temple-of-the-divine-church-big-bear,storefront,909 528 5839,,,,,,,181517708,
288,288,6758,Mountain Community Collective,CA,Lake Arrowhead,34.233881,-117.19648500000001,medical,,4.0,554,92352,https://weedmaps.com/deliveries/mountain-community-collective-2,delivery,(909) 300-5721,,,,,,,,
289,289,41902,Goldleaf Industries,CA,Apple Valley,34.529317,-117.22563400000001,medical,,4.0,156,92307,https://weedmaps.com/deliveries/goldleaf-industries-3,delivery,(760) 205-8300,,,,,,,,
290,290,18834,909 Labs,CA,Redlands,34.035586,-117.18475900000001,medical,,4.0,147,92373,https://weedmaps.com/deliveries/909-labs,delivery,909-735-2523,,,,,,,,
291,291,7323,Mountain Organics - Big Bear,CA,Big Bear Lake,34.245350200000004,-116.88265,medical,,4.0,32,92315,https://weedmaps.com/deliveries/mountain-organics,delivery,(951) 878-0659,,,,,,,,
292,292,8233,Green Rush Extracts - Yucaipa,CA,Yucaipa,34.025775,-117.030845,medical,,4.0,178,92399,https://weedmaps.com/deliveries/green-rush-extracts-2,delivery,909-735-6023,,,,,,,,
293,293,34276,Fuzzie Dunnlop,CA,Redlands,34.055487,-117.13908500000001,medical,,4.0,123,92359,https://weedmaps.com/deliveries/fuzzie-dunnlop,delivery,(909) 273-3471,,,,,,,,
294,294,15165,GREEN PEAK COLLECTIVE,CA,LAKE ARROWHEAD,34.240864,-117.186582,medical,,4.0,113,92352,https://weedmaps.com/deliveries/gpc-green-peak-collective,delivery,(909) 654-4472,,,,,,,,
295,295,20632,DAB CITY HEALERS,CA,BARSTOW,34.894273,-117.017975,medical,,4.0,751,92311,https://weedmaps.com/deliveries/dab-city-healers,delivery,(442) 295-8345,,,,,,,,
296,296,3245,Pleasant Trees Co-op,CA,Apple Valley,34.457066999999995,-117.207875,medical,,4.0,307,92308,https://weedmaps.com/deliveries/pleasant-trees,delivery,760-488-3065,,,,,,,,
297,297,11786,Let's Just Be Blunt INC - Yucaipa / Calimesa,CA,Yucaipa,34.035405,-117.042869,medical,,4.0,184,92399,https://weedmaps.com/deliveries/let-s-just-be-blunt-inc,delivery,909-573-7594,,,,,,,,
298,298,1016,DAM Delivery,CA,Yucca Valley,34.101287,-116.49699199999999,medical,,4.0,100,92284,https://weedmaps.com/deliveries/dam-desert-hot-springs,delivery,760-288-5788,,,,,,,,
299,299,21218,Mount Whitney Organics,CA,Barstow,34.882360999999996,-117.026376,medical,,4.0,909,92311,https://weedmaps.com/deliveries/mount-whitney-organics,delivery,315-679-8455,,,,,,,,
300,300,20081,Big Bear Budz,CA,Big Bear City,34.2611,-116.845,medical,,4.0,70,92314,https://weedmaps.com/deliveries/green-haven-wellness-center,delivery,909 766 2839,,,,,,,,
301,301,1339,GREEN QUEEN,CA,Yucca Valley,34.143732,-116.38933700000001,medical,,4.0,63,92284,https://weedmaps.com/deliveries/med420,delivery,760-831-5950,,,,,,,,
302,302,14157,Let's Just Be Blunt INC - Redlands / Mentone,CA,Redlands,34.038824,-117.16944,medical,,4.0,100,92373,https://weedmaps.com/deliveries/let-s-just-be-blunt-inc-2,delivery,909-573-7594,,,,,,,,
304,304,44641,Fuzzie Dunnlop,CA,Calimesa,34.003885,-117.061976,medical,,5.0,11,92320,https://weedmaps.com/deliveries/fuzzie-dunnlop-2,delivery,(909) 273-3471,,,,,,,,
305,305,1792,California Summer Inc,CA,Redlands,34.048588,-117.17676100000001,medical,,4.0,134,92373,https://weedmaps.com/deliveries/california-summer-collective,delivery,(909) 213-9072,,,,,,,,
306,306,29029,Summit Medical,CA,Barstow,34.876621,-117.02316299999998,medical,,4.0,220,92311,https://weedmaps.com/deliveries/summit-medical,delivery,(760) 577-8729,,,,,,,,
307,307,38762,Ocean Grown Collective,CA,Barstow,34.873677,-117.04975400000001,medical,,4.0,115,92311,https://weedmaps.com/deliveries/ocean-grown-5,delivery,760-987-4843,,,,,,,,
308,308,39144,Family Tree Distribution,Ca,Big Bear,34.228466999999995,-116.861602,medical,,4.0,97,92315,https://weedmaps.com/deliveries/family-tree-distribution-2,delivery,	 909-520-9392,,,,,,,,
309,309,17578,Oro Verde Vida,CA,Morongo Valley,34.112987,-116.47098500000001,medical,,4.0,40,92284,https://weedmaps.com/deliveries/oro-verde-vida,delivery,760-288-1514,,,,,,,,
310,310,12151,Strange Therapy Solutions,Ca,Yucaipa,34.033919,-117.05626399999998,medical,,4.0,18,92399,https://weedmaps.com/deliveries/strange-therapy-solutions-2,delivery,1-951-768-8727,,,,,,,,
311,311,43718,Miles of Smiles,CA,Redlands,34.06,-117.2,medical,,4.0,67,92373,https://weedmaps.com/deliveries/miles-of-smiles,delivery,909-602-2713,,,,,,,,
312,312,43319,The Dudes Delivery,CA,Big Bear,34.237579,-116.88851499999998,medical,,4.0,25,92314,https://weedmaps.com/deliveries/m-m-s,delivery,909-584-5067,,,,,,,,
313,313,21421,Secret Stash Xpress,CA,Lake Arrowhead,34.249477,-117.212848,medical,,4.0,120,92317,https://weedmaps.com/deliveries/secret-stash-xpress,delivery,9099996063,,,,,,,,
314,314,2060,California Care Group,CA,Yucaipa,34.041168,-117.03151299999999,medical,,4.0,170,92399,https://weedmaps.com/deliveries/california-care-group-2-4,delivery,909-529-4523,,,,,,,,
315,315,40385,Black Sheep Collective,CA,Redlands,34.052364000000004,-117.19089299999999,medical,,4.0,79,92373,https://weedmaps.com/deliveries/black-sheep-collective-2,delivery,9093294465,,,,,,,,
316,316,37046,Kali Care Delivery,CA,Yucca Valley,34.13047,-116.38122,medical,,4.0,59,92284,https://weedmaps.com/deliveries/kali-care-delivery,delivery,(909) 737-8063,,,,,,,,
317,317,29705,Green Cloud CG,CA,Yucaipa,34.026697,-117.09478700000001,medical,,4.0,68,92399,https://weedmaps.com/deliveries/greencloudcg,delivery,909-894-9522,,,,,,,,
318,318,39329,Wild Fire Co,CA,Yucca Valley,34.121508,-116.424989,medical,,4.0,62,92284,https://weedmaps.com/deliveries/wild-fire-co,delivery,(760) 600-9759,,,MICROBUSINESS C12180000189,,,,,
319,319,37770,House Of Fire,CA,Apple Valley,34.502297,-117.19015700000001,medical,,4.0,49,92307,https://weedmaps.com/deliveries/house-of-fire-4,delivery,760-927-1257,,,,,,,,
320,320,36958,4 Twenty,CA,Apple Valley,34.52227,-117.1998,medical,,3.0,21,92307,https://weedmaps.com/deliveries/4-twenty-3,delivery,9518008228,,,,,,,,
321,321,27219,Legendary Remedies,CA,Redlands,34.06465,-117.16004199999999,medical,,4.0,259,92374,https://weedmaps.com/deliveries/legendary-remedies-2,delivery,951-404-6702,,,,,,,,
323,323,37425,Remedy of Choice Private Collective,CA,Barstow,34.913166,-117.016246,medical,,4.0,250,92311,https://weedmaps.com/deliveries/remedy-of-choice-private-collective,delivery,760-447-6144,,,,,,,,
324,324,21834,Redlands Finest,CA,Redlands,34.055645,-117.14773400000001,medical,,4.0,158,92374,https://weedmaps.com/deliveries/redlands-finest,delivery,909-709-3841,,,,,,,,
325,325,3249,Alternative Pain Solutions - Yucaipa,CA,Yucaipa,34.015309,-117.012138,medical,,4.0,53,92399,https://weedmaps.com/deliveries/aps,delivery,909-313-1288,,,,,,,,
327,327,58975,Bear High,CA,Big Bear City,34.263040999999994,-116.822286,medical,1221 East Big Bear Blvd,4.0,37,92314,https://weedmaps.com/dispensaries/bearhigh,storefront,626-731-8594,,,,,,,,
328,328,701,California Care Group,CA,Redlands,34.070108000000005,-117.19117800000001,medical,,4.0,299,92373,https://weedmaps.com/deliveries/california-care-group-yucaipa,delivery,909-583-5715,,,,,,,,
329,329,1708,31 Flavors,Ca,Yucaipa,34.04855,-117.034586,medical,,4.0,546,92399,https://weedmaps.com/deliveries/31-flavors,delivery,909-565-2595,,,,,,,,
330,330,567,The Reliable Guys REDLANDS,CA,Redlands,34.04582,-117.20092199999999,medical,,4.0,198,92374,https://weedmaps.com/deliveries/thereliableguys,delivery,909-763-8745,,,,,,,,
331,331,816,Draco Delivery & Clones,CA,San Bernardino,34.135838,-117.208851,medical,,4.0,374,92346,https://weedmaps.com/deliveries/draco-delivery-clones-1,delivery,(909)678-2103,,,,,,,,
332,332,23875,LinKit,CA,Highland,34.128617,-117.22833500000002,medical,,4.0,219,92346,https://weedmaps.com/deliveries/linkit,delivery,(951) 536-9247,,,SREH103067558,,,,,
333,333,33796,GMGP,CA,Joshua Tree,34.120482,-116.35170900000001,medical,,5.0,94,92252,https://weedmaps.com/deliveries/gmgp,delivery,7602172132,,,,,,,,
334,334,1549,Mrs.Hollyweed,CA,Barstow,34.891158000000004,-117.054002,medical,,4.0,1140,92311,https://weedmaps.com/deliveries/herban-legends-2-4,delivery,760-577-3463,,,,,,,,
335,335,4654,California Summer Inc,CA,Yucaipa,34.044338,-117.05498100000001,medical,,5.0,91,92399,https://weedmaps.com/deliveries/california-summer,delivery,(909) 213-9072,,,,,,,,
336,336,38386,Mr Nice Guy,CA,Big Bear Lake,34.243761,-116.886797,medical,,5.0,90,92315,https://weedmaps.com/deliveries/mr-nice-guy-7,delivery,530-346-3855,,,,,,,,
337,337,476,Calimesa Alternative Medicine,CA,Calimesa,34.019397999999995,-117.059809,medical,,4.0,156,92320,https://weedmaps.com/deliveries/calimesa-alternative-medicine,delivery,(909) 328-0681,,,,,,,,
338,338,12721,Vape Keep,CA,Yucaipa,34.026647,-117.107418,medical,,4.0,97,92399,https://weedmaps.com/deliveries/vape-keep,delivery,909-747-7526,,,,,,,,
339,339,394,4 Twenty,CA,Redland,34.065358,-117.18946100000001,medical,,4.0,128,92374,https://weedmaps.com/deliveries/medvend,delivery,9518008228,,,,,,,,
340,340,25273,Green Heart Healing Inc,CA,Apple Valley,34.535043,-117.236473,medical,,4.0,57,92307,https://weedmaps.com/deliveries/green-heart-healing-inc-2,delivery,7605089066,,,,,,,,
341,341,43682,Up In Smoke,CA,Big Bear Lake,34.25951,-116.85728700000001,medical,,5.0,40,92314,https://weedmaps.com/deliveries/up-in-smoke-big-bear,delivery,9095008252,,,,,,,,
342,342,30604,Dank Bank Collective,CA,Redlands,34.055642999999996,-117.18546599999999,medical,,4.0,122,92373,https://weedmaps.com/deliveries/dank-bank-3,delivery,9095330065,,,,,,,,
343,343,14258,B.o.G.o Connection,CA,Joshua Tree,34.135241,-116.24782900000001,medical,,4.0,70,92252,https://weedmaps.com/deliveries/b-o-g-o-connection,delivery,310-710-6511,,,,,,,278731741,
345,345,460,Wake N Bake,CA,Apple Valley,34.500407,-117.229844,medical,,4.0,231,92307,https://weedmaps.com/deliveries/wake-n-bake-delivery-high-desert,delivery,760-552-9603,,,,,,,,
347,347,13202,The Great Provide,CA,Yucca Valley,34.114174299999995,-116.432235,medical,,4.0,29,92284,https://weedmaps.com/deliveries/the-great-provide,delivery,7604421669,,,,,,,,
349,349,16,SkyHighmeds Delivery,CA,Rimforest,34.230059000000004,-117.223822,medical,,4.0,33,92378,https://weedmaps.com/deliveries/skyhighmeds-delivery,delivery,909-SKY-HIGH or 909-742-9797,,,,,,,,
350,350,4544,ARC Collective,CA,Redlands,34.055616,-117.166362,medical,,4.0,23,92374,https://weedmaps.com/deliveries/arc-collective-2-2,delivery,951-217-0052,,,,,,,,
351,351,9820,Green Rush Extracts,CA,San Bernardino,34.128640000000004,-117.20463500000001,medical,,4.0,78,92346,https://weedmaps.com/deliveries/green-rush-extracts-2-3,delivery,909-435-1057,,,,,,,,
352,352,2081,Todays Meds - San Bernardino,CA,Highland,34.114077,-117.17381699999999,medical,,4.0,72,92346,https://weedmaps.com/deliveries/todays-meds,delivery,1-877-420-Meds,,,,,,,,
353,353,34869,Dank Bank Collective,CA,Yucaipa,34.024321,-117.07366599999999,medical,,4.0,37,92399,https://weedmaps.com/deliveries/dank-bank-collective-4,delivery,9095330065,,,,,,,,
355,355,907,Early Bird Delivery,CA,Redlands,34.07005,-117.156325,medical,,4.0,73,92374,https://weedmaps.com/deliveries/top-shelf-alternative-6,delivery,(909) 522-6626,,,,,,,,
356,356,44206,Rolling Cloud,CA,Redlands,34.054916,-117.19730700000001,medical,,4.0,14,92373,https://weedmaps.com/deliveries/rolling-loud-2,delivery,(909) 401-6890,,,,,,,,
357,357,11910,Todays Meds,CA,Apple Valley,34.530109,-117.191128,medical,,4.0,25,92307,https://weedmaps.com/deliveries/todays-meds-2-2,delivery,1-877-420-Meds,,,,,,,,
358,358,26289,Homeboy Delivery,CA,Apple Valley,34.486051,-117.190224,medical,,4.0,17,92307,https://weedmaps.com/deliveries/homeboy-delivery-2,delivery,727-278-3670,,,,,,,,
359,359,2084,Todays Meds - Redlands/Mentone,CA,Redlands,34.04631,-117.18609099999999,medical,,4.0,39,92373,https://weedmaps.com/deliveries/todays-meds-2-4,delivery,1-877-420-Meds,,,,,,,,
360,360,35159,Green Cloud CG,CA,Redlands,34.062868,-117.17816100000002,medical,,5.0,5,92374,https://weedmaps.com/deliveries/green-cloud-cg,delivery,909-894-9522,,,,,,,,
361,361,44530,Green Eagle Collective,California,Redlands,34.077288,-117.182418,medical,,5.0,4,92374,https://weedmaps.com/deliveries/green-eagle-collective-4,delivery,909-705-0805,,,,,,,,
362,362,36160,Mountain Organics - Lucerne Valley,CA,Lucerne Valley,34.443882,-116.9480933,medical,,5.0,2,92356,https://weedmaps.com/deliveries/mountain-organics-lucerne-valley,delivery,(951) 878-0659,,,,,,,,
363,363,46824,"Carts ""R"" Us",CA,Big Bear,34.260463,-116.86599199999999,medical,,5.0,1,92314,https://weedmaps.com/deliveries/carts-r-us-3,delivery,9097253210,,,,,,,,
367,367,45625,Root 66 Med Club,CA,Barstow,34.898633000000004,-117.012152,medical,,1.0,1,92311,https://weedmaps.com/deliveries/root-66-med-club-2,delivery,(760) 447-2982,,,,,,,,
371,371,17251,Cal Meds Delivery Service,CA,"Bakersfield, Wasco",35.351561100000005,-119.0576298,medical,,4.0,128,93309,https://weedmaps.com/deliveries/cal-meds,delivery,661-565-4819,,,,,,,,
372,372,48512,Rosedale Remedies,CA,Bakersfield,35.382971000000005,-119.114651,medical,10111 Rosedale Hwy #220,4.0,303,93312,https://weedmaps.com/dispensaries/rosedale-remedies,storefront,661.679.3557,,,,,,,,
373,373,20494,MJs Delivery - Bakersfield,CA,Bakersfield,35.412334,-119.058803,medical,,4.0,133,93308,https://weedmaps.com/deliveries/mjs-deliveries,delivery,661-750-0049,,,,,,,,
374,374,45725,Green Planet Delivery,CA,Bakersfield,35.380997,-119.018831,medical,,4.0,5,93301,https://weedmaps.com/deliveries/green-planet-delivery,delivery,661-302-7938,,,,,,,,
375,375,51634,Bakersfield Alternative Health Center,CA,Bakersfield,35.383417,-119.10293700000001,medical,9021 Rosedale HWY,4.0,245,93312,https://weedmaps.com/dispensaries/bakersfield-alternative-health-center,storefront,661-829-5949,,,,,,,,
376,376,33177,MJs Delivery - Tehachapi,CA,Tehachapi,35.132337,-118.44910800000001,medical,,4.0,6,93561,https://weedmaps.com/deliveries/mjs-delivery-tehachapi,delivery,661-750-0194,,,,,,,,
377,377,23253,HIGHWAY 99 COLLECTIVE,Ca,Bakersfield,35.444697999999995,-119.08745,medical,19456 Colombo Street Suite H,4.0,2661,93308,https://weedmaps.com/dispensaries/hwy-99-collective-grand-reopening,storefront,(661) 391-9825,,,,,,,,
378,378,27078,Weed Gott It,CA,Bakersfield,35.344409999999996,-119.092219,medical,,4.0,183,93304,https://weedmaps.com/deliveries/weed-gott-it,delivery,(661) 544-1595,,,,,,,,
379,379,44888,Bakersfield Farmaceutical,Ca,Bakersfield,35.365321,-119.091982,medical,,4.0,17,93311,https://weedmaps.com/deliveries/bakersfield-farmaceutical,delivery,661-496-9499,,,,,,,,
380,380,59192,Zen Remedies 20 Cap,CA,Bakersfield,35.35649,-119.01853600000001,medical,126 Chester Ave,4.0,179,93304,https://weedmaps.com/dispensaries/zen-remedies-20-cap,storefront,(661) 227-9731,,,,,,,,
381,381,59116,Bakersfield's Best 20 Cap,CA,Bakersfield,35.353907,-119.052066,medical,3921 Stockdale Hwy,4.0,437,93309,https://weedmaps.com/dispensaries/bakersfield-s-best-20-cap,storefront,(661) 417-1280,,,,,,,,
382,382,2324,The Imperial Roots Collective,CA,Bakersfield,35.288775,-119.05667,medical,,4.0,383,93313,https://weedmaps.com/deliveries/the-imperial-roots-collective,delivery,6614370343,,,,,,,,
383,383,41141,TJC Delivery,CA,Bakersfield,35.318187,-119.05663799999999,medical,,4.0,22,93301,https://weedmaps.com/deliveries/tjc-delivery,delivery,213-306-9342,,,,,,,,
384,384,48089,RGC Bakersfield,CA,Bakersfield,35.303931,-119.00278200000001,medical,5606 S. Union Ave,4.0,290,93307,https://weedmaps.com/dispensaries/rgc-bakersfield,storefront,661-374-7277 ,,,,,,,,
385,385,56779,Fresh Baked 20 Cap,CA,Bakersfield,35.329195,-119.011623,medical,2860 South Chester Avenue Unit E.,4.0,480,93304,https://weedmaps.com/dispensaries/bakersfield-gas-station,storefront,(661) 759-7805,,,,,,,,
386,386,46933,Therapeutic Health Center,CA,Bakersfield,35.406642,-119.02131499999999,medical,141 N Chester Ave,4.0,204,93308,https://weedmaps.com/dispensaries/therapeutic-health-center-2-3,storefront,877-568-3710,,,,,,,C101800000259,
387,387,35771,Kind Brothers,CA,Bakersfield,35.379808000000004,-118.995627,medical,430 Kentucky,4.0,207,93305,https://weedmaps.com/dispensaries/kind-brothers,storefront,661-374-9020,,,,,,,,
388,388,58763,Strictly 20 Cap,CA,Bakersfield,35.329146,-119.01161100000002,medical,2860 South Chester Ave. Suite A,4.0,229,93304,https://weedmaps.com/dispensaries/strictly-20-cap,storefront,(661) 481-5546,,,,,,,,
389,389,56554,All Time High Bakersfield,CA,Bakersfield,35.391028999999996,-119.017674,medical,3415 K St,4.0,387,93301,https://weedmaps.com/dispensaries/all-time-high-bakersfield-25-cap,storefront,(661) 376-4815,,,,,,,,
390,390,41974,Mars Collective,Ca,Bakersfield,35.313466,-119.003276,medical,2545 So.Union Ave,4.0,589,93307,https://weedmaps.com/dispensaries/mars-collective,storefront,661-837-1590,,,,,,,,
391,391,56555,Ministry of the Holy Grail,CA,Bakersfield,35.354143,-119.01369199999999,medical,1018 Brundage Ln,4.0,257,93304,https://weedmaps.com/dispensaries/ministry-of-the-holy-grail,storefront,(661) 759-9758,,,,,,,,
392,392,54510,ASHES,CA,Tehachapi,35.124783,-118.497685,medical,20681 West Valley Blvd,4.0,40,93561,https://weedmaps.com/dispensaries/ashes-tehachapi,storefront,661-300-1764,,,,,,,,
393,393,59236,Green Linq,Ca,Bakersfield,35.368215,-119.015551,medical,1203 California Ave,4.0,18,93304,https://weedmaps.com/dispensaries/green-linq,storefront,6613802236,,,,,,,,
394,394,32897,One Drop Collective,Ca.,Bakersfield,35.295898,-119.003134,medical,,4.0,765,93307,https://weedmaps.com/deliveries/greenzone-collective,delivery,661-631-1390 text only,,,,,,,,
395,395,40071,Hill Green,CA,Pine Mountain Club,34.852949,-119.172045,medical,,4.0,24,93222,https://weedmaps.com/deliveries/hill-green,delivery,1-855-570-5105,,,,,,,,
396,396,43277,Kern Kush Connection,CA,Bakersfield,35.334379,-119.07133600000002,medical,,4.0,12,93309,https://weedmaps.com/deliveries/kern-kush-connection,delivery,(909) 401-6890,,,,,,,,
397,397,44912,Bear Mountain Collective,CA,Bakersfield,35.339508,-119.03888899999998,medical,,4.0,10,93304,https://weedmaps.com/deliveries/bear-mountain-collective-3,delivery,6613458563,,,,,,,,
398,398,46791,Medi - Drop,CA,Bakersfield,35.332796,-119.08691100000001,medical,,5.0,5,93309,https://weedmaps.com/deliveries/medi-drop-1,delivery,661-448-2899,,,,,,,,
399,399,46019,Kern Kush Connection,CA,Bakersfield,35.285706,-119.048079,medical,,4.0,8,93313,https://weedmaps.com/deliveries/kern-kush-connection-2,delivery,(909) 401-6890,,,,,,,,
400,400,46020,Kern Kush Connection,CA,Bakersfield,35.388402,-119.05176499999999,medical,,4.0,3,93308,https://weedmaps.com/deliveries/kern-kush-connection-3,delivery,(909) 401-6890,,,,,,,,
401,401,55224,Temecula Healing Center,CA,Temecula,33.510661,-117.18398799999999,medical,42210 Roick Drive Unit 10,4.0,2020,92590,https://weedmaps.com/dispensaries/winchester-collective,storefront,760-208-8085,,,,,,,,
402,402,57243,HGH 30 CAP,CA,Homeland,33.743051,-117.10961699999999,medical,31559 US Hwy 74,4.0,2791,92548,https://weedmaps.com/dispensaries/homelands-green-house,storefront,9512239516,,,,,,,,
405,405,51086,Lucky Greens Collective,CA,El Cajon,32.8081453,-116.94041999999999,medical,1198 Broadway,4.0,1388,92021,https://weedmaps.com/dispensaries/luckys-collective,storefront,619-345-1218,,,,,,,,
407,407,56997,All Buds Collective,CA,Vista,33.16295,-117.204454,medical,2534 S Santa Fe Ave Unit C,4.0,844,92084,https://weedmaps.com/dispensaries/vista-cannabis-co,storefront,(760) 201 - 9693,,,,,,,,
408,408,59504,24/7 Collective,CA,Valley Center,33.217649,-117.033758,medical,27930 Valley Center Road,4.0,145,92082,https://weedmaps.com/dispensaries/24-7-collective-1,storefront,760-390-0073,,,,,,,,
410,410,16859,Hello Cannabis,CA,Vista,33.204059,-117.23916299999999,medical,,4.0,386,92083,https://weedmaps.com/deliveries/luckys-health-group,delivery,619-504-1538 ,,,,,,,,
411,411,9339,True Meds Delivery Incorporated,CA,Mission Valley,32.787713000000004,-117.120503,medical,,4.0,573,92104,https://weedmaps.com/deliveries/true-meds-delivery,delivery,619-332-9597,,,,,,,,
412,412,2457,SoCal Kings Collective,CA,Palm Desert,33.73839,-116.32885900000001,medical,,4.0,770,92211,https://weedmaps.com/deliveries/socalkings,delivery,7609922615,,,,,,,,
413,413,16861,Hello Cannabis,CA,San Marcos,33.128946,-117.20835100000001,medical,,4.0,355,92078,https://weedmaps.com/deliveries/luckys-health-group-2,delivery,619-504-1428,,,,,,,,
414,414,6756,The Green Apple,CA,Hemet/San Jacinto,33.758551000000004,-116.95026000000001,medical,,4.0,696,92544,https://weedmaps.com/deliveries/the-green-apple,delivery,(951)-492-2376,,,,,,,,
415,415,13317,Hello Cannabis,CA,Pacific Beach,32.806175,-117.21881299999998,medical,,4.0,234,92109,https://weedmaps.com/deliveries/a-1-deliveries-2-6,delivery,619-402-8244,,,,,,,,
416,416,25669,Exclusive Budz,CA,Clairemont Kearny,32.839809,-117.190425,medical,,4.0,474,92123,https://weedmaps.com/deliveries/exclusive-budz-10,delivery,858.226.2485,,,,,,,,
417,417,44703,Hello Cannabis,CA,Murrieta,33.582307,-117.191249,medical,,5.0,78,92562,https://weedmaps.com/deliveries/luckys-health-group-19,delivery,951-768-8922,,,,,,,,
418,418,44702,Hello Cannabis,CA,Temecula,33.503356,-117.133835,medical,,5.0,60,92591,https://weedmaps.com/deliveries/luckys-health-group-18,delivery,951-768-8903,,,,,,,,
419,419,23441,Peoples Grower - Menifee,CA,Menifee,33.687863,-117.168117,hybrid,,4.0,128,92586,https://weedmaps.com/deliveries/the-peoples-grower-2-2,delivery,951-200-2088,,,,,,,,
421,421,44696,Hello Cannabis,CA,Fallbrook,33.389169,-117.17278700000001,medical,,5.0,10,92028,https://weedmaps.com/deliveries/luckys-health-group-15,delivery,951-768-8965,,,,,,,,
422,422,43949,Calibiz Meds Delivery,CA,Ramona,33.037634999999995,-116.86294,medical,,3.0,6,92065,https://weedmaps.com/deliveries/green-house-meds-delivery-2,delivery,619-900-3379,,,,,,,,
423,423,16753,The Flower House,CA,Vista,33.1825738,-117.21759660000001,medical,1526 S. Santa Fe Unit B,4.0,3595,92084,https://weedmaps.com/dispensaries/tree-house-collective-dispensary-san-marcos,storefront,760-917-5851,,,,,,,,
424,424,58922,Kings of Cannabis,CA,Temecula,33.505295000000004,-117.16396,medical,43071 Business Park Dr,4.0,731,92590,https://weedmaps.com/dispensaries/kings-of-cannabis,storefront,951-216-0603,,,,,,,,
425,425,28115,Private Reserve 64 - Murrieta,CA,Murrieta,33.555865000000004,-117.172618,medical,40165 Murrieta Hot Springs Rd.,4.0,263,92563,https://weedmaps.com/dispensaries/the-og-clinic-dispensary-oceanside,storefront,951-704-9614,,,,,,,,
426,426,58719,Valley Center Greens,CA,Valley Center,33.2286,-117.0242,medical,28434 Cole Grade Rd,4.0,225,92082,https://weedmaps.com/dispensaries/green-valley-collective-1,storefront,7609973869,,,,,,,,
427,427,60404,"Releaf Meds ""Grand Opening""",CA,Ramona,33.050340999999996,-116.871505,medical,618 Pine St,4.0,38,92065,https://weedmaps.com/dispensaries/releaf-meds,storefront,760-440-0040,,,,,,,C1018C000005,
430,430,61854,Highway Collective,CA,El Cajon,32.841584999999995,-116.889218,medical,13789 Highway 8 Business,5.0,12,92021,https://weedmaps.com/dispensaries/highway-collective,storefront,6192019745,,,,,,,,
431,431,18336,Wholesale Green Meds - Menifee,CA,Menifee,33.677754,-117.17571000000001,medical,,4.0,352,92404,https://weedmaps.com/deliveries/wholesale-green-meds-menifee,delivery,951-401-8020,,,,,,,,
432,432,15370,Express Care,CA,El Cajon,32.775929,-116.965318,medical,,4.0,620,92020,https://weedmaps.com/deliveries/kings-kannabis,delivery,619-631-9592,,,,,,,,
433,433,9340,True Meds Delivery Incorporated,CA,San Diego,32.801889,-117.225877,medical,,4.0,728,92109,https://weedmaps.com/deliveries/true-meds-delivery-2,delivery,(619) 5043216,,,,,,,,
434,434,9342,True Meds Delivery Incorporated,CA,San Diego,32.777452000000004,-117.07333799999999,medical,,4.0,353,92115,https://weedmaps.com/deliveries/true-meds-delivery-2-3,delivery,1619 332 9597,,,,,,,,
435,435,14445,Exclusive Budz,Ca,San Marcos,33.109786,-117.082586,medical,,4.0,529,92025,https://weedmaps.com/deliveries/canna-bus-xpress-inc-2-4,delivery,858.226.2485,,,,,,,,
436,436,19748,Exclusive Budz,CA,Poway,32.98673,-117.089096,medical,,4.0,480,92064,https://weedmaps.com/deliveries/dank-remedies-2,delivery,858.226.2485,,,,,,,,
437,437,2303,Pakalolo Sunshine,CA,Clairemont,32.816978999999996,-117.188351,medical,,4.0,95,92111,https://weedmaps.com/deliveries/pakalolo-sunshine-clairemont,delivery,619-980-2597,,,,,,,,
438,438,21516,Higher Class Healing,California,Hemet,33.729245,-117.03269628,medical,,4.0,149,92545,https://weedmaps.com/deliveries/higher-class-healing-hemet-delivery,delivery, 951-501-9009,,,,,,,,
439,439,29207,The High Church Delivery,CA,Fallbrook,33.331355,-117.159861,medical,,5.0,21,92028,https://weedmaps.com/deliveries/maryjanes-mobile-fallbrook,delivery,(877) 766-5420,,,,,,,,
440,440,40729,EZY Delivery,CA,Murrieta,33.575626,-117.19635600000001,medical,,4.0,48,92551,https://weedmaps.com/deliveries/ezy-delivery-3,delivery,9512381882,,,,,,,,
441,441,60206,HARVEST COLLECTIVE 247,CA,VALLEY CENTER,33.236502,-117.052726,medical,29010 LILAC RD,5.0,94,92082,https://weedmaps.com/dispensaries/harvest-collective-247,storefront,7608771182,,,,,,,,
442,442,58494,Bud Buddies,CA,Temecula,33.514491,-117.179355,medical,42225 Remington Avenue Unit #A-21,4.0,678,92590,https://weedmaps.com/dispensaries/24-7-collective,storefront,951-294-8576,,,,,,,,
443,443,49409,Avocado Greens,CA,El Cajon,32.793328,-116.95716399999999,medical,237 Avocado ave Suite 110,4.0,464,92021,https://weedmaps.com/dispensaries/greener-field-meds,storefront,619-480-5878,,,,,,,,
445,445,16072,Hello Cannabis,CA,Clairemont,32.8239594,-117.1848787,medical,,4.0,387,92117,https://weedmaps.com/deliveries/luckys-health-group-delivery-3,delivery,619-493-6523,,,,,,,,
446,446,27026,Exclusive Budz,CA,Pacific Beach,32.79787,-117.23264099999999,medical,,4.0,290,92109,https://weedmaps.com/deliveries/exclusive-budz-12,delivery,858.226.2485,,,,,,,,
447,447,29958,Galaxy Medical Cannabis,CA,El Cajon,32.819131,-116.949656,medical,,4.0,232,92020,https://weedmaps.com/deliveries/galaxymedicalcannabis,delivery,6193327749,,,,,,,,
448,448,28922,Peoples Grower - Murrieta,Ca,Murrieta,33.573137,-117.20449199999999,hybrid,,4.0,170,92562,https://weedmaps.com/deliveries/the-peoples-grower-4,delivery,951-200-2088,,,,,,,,
449,449,15920,CY SOLUTIONS - Palm Desert,CA,Palm Desert,33.745033,-116.41595600000001,medical,,4.0,385,92260,https://weedmaps.com/deliveries/cy-solutions,delivery,209-783-8333,,,,,,,,
450,450,44698,Hello Cannabis,CA,Menifee,33.683746,-117.16161299999999,medical,,4.0,59,92584,https://weedmaps.com/deliveries/luckys-health-group-16,delivery,951-314-3571,,,,,,,,
451,451,14446,Exclusive Budz,CA,Vista,33.186427,-117.228545,medical,,4.0,312,92083,https://weedmaps.com/deliveries/canna-bus-xpress-inc-2-5,delivery,858.226.2485,,,,,,,,
452,452,42603,Empire Meds Delivery,CA,Poway,32.907302,-117.163575,medical,,4.0,57,92126,https://weedmaps.com/deliveries/empire-meds-delivery-5,delivery,619-380-6132,,,,,,,,
453,453,39953,West Coast Farms,CA,Fallbrook,33.37336,-117.240649,medical,,5.0,41,92082,https://weedmaps.com/deliveries/on-the-move-6,delivery,7602016811,,,,,,,,
454,454,1565,Santa Fe Co-Op,CA,San Jacinto,33.764998999999996,-116.96314699999999,medical,,4.0,1318,92585,https://weedmaps.com/deliveries/santa-fe-coop,delivery,951-263-4917,,,,,,,,
455,455,41509,Speedy Weedy Delivery,CA,Mission Valley,32.778923,-117.149735,hybrid,,5.0,32,92108,https://weedmaps.com/deliveries/speedy-weedy-mission-valley,delivery,619-333-3335,,INPROCESS,,,,INPROCESS,,
456,456,10480,Better Daze San Marcos / Escondido,CA,San Marcos,33.147535,-117.133372,medical,,4.0,108,92069,https://weedmaps.com/deliveries/better-daze-express-inc-2-2,delivery,619-876-3269,,,,,,,,
457,457,43421,Speedy Weedy Delivery,CA,La Jolla,32.865959000000004,-117.230585,hybrid,,5.0,17,92037,https://weedmaps.com/deliveries/speedy-weedy-delivery-la-jolla,delivery,(619) 333-3330,,INPROCESS,,,,INPROCESS,,
458,458,15887,Budzilla,CA,Temecula,33.505748,-117.09607700000001,medical,,4.0,18,92592,https://weedmaps.com/deliveries/budzilla-sd,delivery,7603920187,,,,,,,,
459,459,49425,Herbs And Essential Oils,CA.,Hemet,33.740326,-116.971324,medical,102 E. Mayberry Ave.,4.0,2374,92544,https://weedmaps.com/dispensaries/the-natural-herb,storefront,951-438-4453,,,,,,,,
460,460,60841,Karma Collective,CA,Temecula,33.514159,-117.179175,medical,42225 Remington Avenue A15,4.0,168,92590,https://weedmaps.com/dispensaries/karma-kollective,storefront,951-216-5626,,,,,,,,
462,462,59087,Washington Meds,CA,El Cajon,32.788059000000004,-116.95178200000001,medical,844 E Washington Ave,4.0,269,92020,https://weedmaps.com/dispensaries/washington-meds,storefront,6195043710,,,,,,,,
463,463,61904,North County Meds Collective,California,San Marcos,33.138996999999996,-117.19896399999999,medical,1512 Linda Vista Dr.,5.0,6,92078,https://weedmaps.com/dispensaries/northcountymedscollective,storefront,7602702938,,,,,,,,
464,464,9341,True Meds Delivery Incorporated,CA,San Diego,32.783572,-117.20201599999999,medical,,4.0,359,92110,https://weedmaps.com/deliveries/true-meds-delivery-2-2,delivery,(619) 5770910,,,,,,,,
465,465,17871,Higher Class Healing,CA,Menifee,33.688036,-117.203549,medical,,4.0,191,91786,https://weedmaps.com/deliveries/higher-class-healing,delivery,951-501-9009,,,,,,,,
466,466,20872,Higher Class Healing,CA,Murrieta,33.581379,-117.213204,medical,,4.0,149,92562,https://weedmaps.com/deliveries/higher-class-healing-2,delivery,951-501-9009,,,,,,,,
468,468,41745,Happy Time Delivery,CA,El Cajon,32.807446,-116.979684,medical,,4.0,45,92020,https://weedmaps.com/deliveries/happy-times-el-cajon,delivery,(619) 402-2345,,,,,,,,
469,469,36598,SPEEDWEED,CA,San Marcos,33.148394,-117.18892199999999,medical,,4.0,154,92069,https://weedmaps.com/deliveries/bloom-room-2-3,delivery,858-337-9801,,,,,,,,
470,470,40727,EZY Delivery,CA,Temecula,33.515753000000004,-117.14713300000001,medical,,4.0,31,92551,https://weedmaps.com/deliveries/ezy-delivery,delivery,9512381882,,,,,,,,
473,473,56126,420 Friends,CA,Temecula,33.511835,-117.178201,medical,42095 Zevo Dr. Unit A-9,4.0,281,92590,https://weedmaps.com/dispensaries/thc-desert-dreams,storefront,951-719-1280,,,,,,,,
474,474,60787,"Hemet Healing "" Grand Opening""",Ca,Hemet,33.747405,-116.970272,medical,207 E Florida Ave,4.0,166,92543,https://weedmaps.com/dispensaries/hemet-healing-2,storefront,9516512112,,,,,,,,
475,475,52796,Planet Greens,CA,Escondido,33.135882,-117.05675600000001,medical,1760 E Valley Parkway,4.0,985,92025,https://weedmaps.com/dispensaries/planetgreens,storefront,7605752124,,,,,,,,
476,476,61880,501 Meds,CA,El Cajon,32.790326,-116.97626799999999,medical,501 Front st,4.0,13,92020,https://weedmaps.com/dispensaries/501-meds,storefront,619-312-5813,,,,,,,,
477,477,943,Green Chill,CA,Ramona,33.018485,-116.86651499999999,medical,,4.0,265,92065,https://weedmaps.com/deliveries/green-chill,delivery,(619) 733-1608,,,,,,,,
478,478,1082,Love Bud - Hemet,CA,Hemet & San Jacinto,33.743873,-117.006281,medical,,4.0,693,92545,https://weedmaps.com/deliveries/lovebud,delivery,951-473-3502,,,,,,,,
480,480,29960,Galaxy Medical Cannabis,CA,La Mesa,32.777027000000004,-117.02361499999999,medical,,4.0,119,91942,https://weedmaps.com/deliveries/galaxy-medical-cannabis-2,delivery,619-332-7749,,,,,,,,
482,482,38553,Hello Cannabis,CA,Solana Beach,33.019498999999996,-117.20388500000001,medical,,5.0,49,92091,https://weedmaps.com/deliveries/luckys-health-group-solana-beach,delivery,760-524-2984,,,,,,,,
483,483,12154,Express Delivery Service - Murrieta,ca,Murrieta,33.591521,-117.20866200000002,medical,,4.0,103,92591,https://weedmaps.com/deliveries/expressdeliveryservice,delivery,951-400-1563,,,,,,,,
484,484,39950,West Coast Farms,CA,San Marcos,33.150923999999996,-117.16188100000001,medical,,4.0,99,92024,https://weedmaps.com/deliveries/on-the-move-3,delivery,7602016811,,,,,,,,
485,485,45515,Temecula Wellness,CA,Temecula,33.493975,-117.11178600000001,medical,,4.0,341,92590,https://weedmaps.com/deliveries/temecula-wellness-1,delivery,951-473-3874 ,,,,,,,,
486,486,40616,Speedy Weedy Delivery,CA,Santee,32.838401,-116.967258,hybrid,,4.0,64,92071,https://weedmaps.com/deliveries/speedy-weedy-delivery,delivery,619-333-3335,,INPROCESS,,,,INPROCESS,,
487,487,905,BEST FRIENDS FARM,CA,Rancho Mirage,33.737617,-116.41916499999999,medical,,4.0,149,92270,https://weedmaps.com/deliveries/best-friends-farm,delivery,760-660-5579,,,,,,,,
488,488,40728,EZY Delivery,CA,Menifee,33.696057,-117.151095,medical,,4.0,114,92551,https://weedmaps.com/deliveries/ezy-delivery-2,delivery,9512381882,,,,,,,,
489,489,14116,Budzilla,Ca,Mission Valley,32.778220000000005,-117.13563400000001,medical,,4.0,31,92108,https://weedmaps.com/deliveries/budzilla-2-2,delivery,619-836-0619,,,,,,,,
490,490,15899,WEEDRIVE,CA,Poway/Mira Mesa,32.951825,-117.062494,medical,,4.0,136,92064,https://weedmaps.com/deliveries/weedrive-10,delivery,6194022849,,,,,,,,
492,492,45726,Speedy Weedy Delivery,CA,Pacific Beach,32.800374,-117.229303,hybrid,,5.0,1,92109,https://weedmaps.com/deliveries/speedy-weedy-delivery-11,delivery,(619) 333-3330,,INPROCESS,,,,INPROCESS,,
493,493,48865,Golden State,CA,Temecula,33.51296,-117.16228400000001,medical,"27585 Commerce Center Drive, Suite A",4.0,1420,92590,https://weedmaps.com/dispensaries/temecula-holistic-health-2,storefront,951-694-4700,,,,,,,,
496,496,7158,Peoples Choice SD,CA,Poway/Mira Mesa,32.950002000000005,-117.115775,medical,,4.0,633,92129,https://weedmaps.com/deliveries/peoples-choice-sd-10-5,delivery,858-282-7919,,,,,,,,
497,497,18931,The Gas Station Delivery - Menifee,CA,Menifee,33.686997999999996,-117.175003,medical,,4.0,258,92586,https://weedmaps.com/deliveries/the-gas-station-delivery-3,delivery,1 (909) 420-5214,,,,,,,,
498,498,31298,Peoples Grower - Temecula,CA,Temecula,33.507872,-117.12361399999999,hybrid,,4.0,120,92592,https://weedmaps.com/deliveries/peoples-grower-temecula,delivery,951-200-2088,,,,,,,,
499,499,28504,Exotic Meds,CA,San Diego,32.827701,-117.206053,medical,,4.0,953,92020,https://weedmaps.com/deliveries/exotic-alternatives-inc-2-3-2,delivery,619-610-8587,,,,,,,,
500,500,23381,House Of Dank,CA,El Cajon,32.787023,-116.97093400000001,medical,,4.0,130,92020,https://weedmaps.com/deliveries/house-of-dank-6,delivery,619-558-6718,,,,,,,,
502,502,45499,Nevada Made Marijuana,NV,Laughlin,35.161315,-114.575154,recreational,1975 S Casino Dr,4.0,1913,89029,https://weedmaps.com/dispensaries/nevada-medical-marijuana-2,storefront,(702) 737-7777,,,,,,,,
503,503,25587,Debbie's Dispensary,AZ,Bullhead City,35.052646,-114.58693600000001,medical,3550 North Lane Suite 110,4.0,957,86442,https://weedmaps.com/dispensaries/debbie-s-dispensary,storefront,928-768-4665,,,,,,,,
507,507,42894,Cannalife365,CA,Needles,34.825871,-114.595937,medical,,4.0,23,92363,https://weedmaps.com/deliveries/cannalife-1,delivery,760-282-4716,,,,,,,,
509,509,25140,Mohave Green,AZ,Mohave Valley,34.957518,-114.59668300000001,medical,6870 S Hwy 95 #251,0.0,0,86440,https://weedmaps.com/dispensaries/mohavegreen-az,storefront,,,,,,,,,
510,510,47986,Leave it to Nature - DRIVE THRU AVAILABLE!,CA,Shasta Lake,40.679823,-122.35205400000001,hybrid,5340 Shasta Dam Blvd,4.0,175,96019,https://weedmaps.com/dispensaries/leave-it-to-nature,storefront,530-691-7199,,,A1017000065,,,,M10170000105,
511,511,7334,420 Express,Ca,Redding,40.576212,-122.38648700000002,medical,,4.0,405,96003,https://weedmaps.com/deliveries/420-express-421-426,delivery,Call only (530) 691-3624,,,,,,,,
513,513,18717,The Green Heart - Mt. Shasta,Ca,Mt. Shasta,41.308023999999996,-122.31145500000001,hybrid,625 S. Mt. Shasta Blvd,4.0,64,96067,https://weedmaps.com/dispensaries/the-green-heart,storefront,(530) 918-9440,,,A1017000076,,,,M10180000148,
515,515,27449,The Farmacy,CA,Redding,40.586453000000006,-122.358066,medical,,4.0,132,96001,https://weedmaps.com/deliveries/the-farmacy-4,delivery,530-710-3025,,,,,,,,
516,516,35613,Redding Cannabis Caregivers,CA,Redding,40.571039,-122.360475,medical,,4.0,20,96002,https://weedmaps.com/deliveries/redding-cannabis-caregivers,delivery,530-410-4083,,,,,,,,
517,517,20518,Firefly Delivery,CA,Redding,40.592935,-122.351405,medical,,4.0,59,96002,https://weedmaps.com/deliveries/firefly-delivery-3-2,delivery,530-953-9230,,,,,,,,
522,522,46782,"Heaven - Fresno, Clovis",CA,Fresno,36.824971999999995,-119.79071100000002,medical,"By Appointment Only, Call To Verify",4.0,1230,93710,https://weedmaps.com/dispensaries/heaven,storefront,559-217-3161,,,,,,,,
523,523,16544,The Gas Station - Fresno,CA,Fresno,36.837185,-119.79034399999999,medical,,4.0,171,93711,https://weedmaps.com/deliveries/the-gas-station-fresno,delivery,559-981-0696,,,,,,,,
524,524,20544,The Gas Station - Clovis,CA,Clovis,36.852183000000004,-119.729708,medical,,4.0,126,93619,https://weedmaps.com/deliveries/the-gas-station-fresno-2,delivery,559-981-0696,,,,,,,,
525,525,45204,Green Medical Express - Oakhurst,CA,Oakhurst,37.293547,-119.64793799999998,medical,,5.0,6,93644,https://weedmaps.com/deliveries/green-medical-express-oakhurst,delivery,5597605676,,,,,,,,
526,526,59644,MJ 13 Elevated,California,Fresno,36.815665,-119.78232,medical,Please call for appointment / location,4.0,56,93710,https://weedmaps.com/dispensaries/mj-13-elevated,storefront,(559) 712-1516,,,,,,,,
527,527,12133,Young Power 420 - Fresno,CA,Fresno,36.786640000000006,-119.79073999999999,medical,,4.0,597,93726,https://weedmaps.com/deliveries/young-power-420,delivery,559-394-2025,,,,,,,,
528,528,23047,MJ 13 Delivery,CALIFORNIA,Clovis,36.808526,-119.72721399999999,medical,,4.0,55,92561,https://weedmaps.com/deliveries/mj-13-delivery,delivery,559-712-1516,,,,,,,,
529,529,901,Hempceuticals,California,Fresno,36.837257,-119.826278,medical,,4.0,569,93711,https://weedmaps.com/deliveries/hempseuticals,delivery,559-412-6078,,,,,,,,
530,530,50920,Cafe 710,CA,Fresno,36.836431,-119.912347,medical,**Call for verification**,4.0,258,93722,https://weedmaps.com/dispensaries/buds-4-life-2-o,storefront,559-246-8792,,,,,,,,
531,531,33849,559 Flowerz,CA,Clovis/Fresno,36.851963,-119.75671100000001,medical,,4.0,49,93720,https://weedmaps.com/deliveries/559-flowerz,delivery,559-978-6305,,,,,,,,
532,532,26916,Central Valley Green,CA,Fresno,36.822772,-119.82635400000001,medical,,4.0,176,93650,https://weedmaps.com/deliveries/central-valley-green,delivery,559-578-7904,,,,,,,,
533,533,56852,"Mile High Dispensary, LLC",CA,Fresno,36.728739000000004,-119.780377,medical,By appointment only,4.0,21,93721,https://weedmaps.com/dispensaries/mile-high-dispensary-llc,storefront,(559) 442-1228,,,,,,,,
534,534,214,"Bat Buds Collective - Fresno, Clovis",CA,Fresno,36.805991999999996,-119.846682,medical,,4.0,310,93722,https://weedmaps.com/deliveries/bat-buds-collective,delivery,244-9805 312-0230,,,,,,,,
535,535,15545,The Dabfather Delivery Service - Fresno,CA,Fresno,36.786666,-119.833776,medical,,4.0,52,93705,https://weedmaps.com/deliveries/the-dabfather-delivery-service,delivery,559-397-4422,,,,,,,,
536,536,27520,CLOUD LEGENDS 420,CA,Clovis,36.808634999999995,-119.73629,medical,,4.0,265,93726,https://weedmaps.com/deliveries/cloud-legends,delivery,559-269-7236,,,,,,,,
537,537,45512,Central Valley Alternative,CA,Fresno,36.830176,-119.790379,medical,,5.0,1,93710,https://weedmaps.com/deliveries/central-valley-alternative-4,delivery,(800) 976-2406,,,,,,,,
538,538,43497,Hermies Herbs,CA,Dinuba,36.545796,-119.39048600000001,medical,,2.0,20,93618,https://weedmaps.com/deliveries/hermies-herbs,delivery,(559) 643-6966,,,,,,,,
539,539,1470,Guaranteed Flight 559 - Fresno,CA,Fresno,36.80878,-119.79049599999999,medical,,4.0,1324,93704,https://weedmaps.com/deliveries/guaranteed-flight-559,delivery,559-288-4044,,10296040810000,,,,,,
540,540,7742,The Valleys Finest,CA,Clovis,36.837396999999996,-119.66408200000001,medical,,4.0,309,93611,https://weedmaps.com/deliveries/the-valleys-finest-2,delivery,559-575-5554,,,,,,,,
541,541,43971,Hermies Herbs,CA,Fresno,36.808546,-119.75426100000001,medical,,4.0,21,93710,https://weedmaps.com/deliveries/hermies-herbs-fresno,delivery,(559) 643-6966,,,,,,,,
542,542,59265,The 420 Chronicles,CA,Fresno,36.84,-119.79,medical,Call for Address,2.0,13,93650,https://weedmaps.com/dispensaries/the-420-chronicles,storefront,(559) 681-2773,,,,,,,,
543,543,28605,Top Shelf,CA,Clovis,36.801241999999995,-119.727208,medical,,4.0,185,93611,https://weedmaps.com/deliveries/top-shelf-15,delivery,(559) 349-0109,,,,,,,,
544,544,39871,Half Baked Deliveries,CA,Fresno,36.759893,-119.803513,medical,,4.0,50,93724,https://weedmaps.com/deliveries/half-baked-deliveries,delivery,559-545-4986,,,,,,,,
545,545,45203,Green Medical Express - Clovis,CA,Clovis,36.794228000000004,-119.71326200000001,medical,,5.0,60,93612,https://weedmaps.com/deliveries/green-medical-express-clovis,delivery,559-593-6337,,,,,,,,
546,546,10239,The Wax Room,CA,Fresno,36.772287,-119.790649,medical,,4.0,287,93705,https://weedmaps.com/deliveries/the-wax-room,delivery,5593945304 ,,,,,,,,
547,547,15546,The Dabfather Delivery Service - Clovis,CA,Clovis,36.786831,-119.76340400000001,medical,,4.0,50,93726,https://weedmaps.com/deliveries/the-dabfather-delivery-service-2,delivery,559-397-4422,,,,,,,,
548,548,30042,CLOUD LEGENDS 420,CA,Fresno,36.822917,-119.790373,medical,,4.0,122,93711,https://weedmaps.com/deliveries/cloud-legends-420,delivery,559-269-7236,,,,,,,,
549,549,42220,THE PLUG,CALIFORNIA,CLOVIS,36.808394,-119.718221,medical,,4.0,39,93612,https://weedmaps.com/deliveries/the-plug-clovis,delivery,(559) 668-6444,,,,,,,,
550,550,19742,Care Package Deliveries,CA,Clovis,36.823178999999996,-119.74758600000001,medical,,4.0,169,93710,https://weedmaps.com/deliveries/zedify-inc,delivery,(559) 770-5608,,,,,,,,
551,551,45202,Green Medical Express,ca,fresno,36.797954,-119.781318,medical,,5.0,26,93888,https://weedmaps.com/deliveries/green-medical-express,delivery,5595936337,,,,,,,,
552,552,42219,THE PLUG,CALIFORNIA,FRESNO,36.794026,-119.79953799999998,medical,,4.0,15,93701,https://weedmaps.com/deliveries/the-plug-fresno,delivery,(559) 668-6444,,,,,,,,
553,553,44487,Greenthumb,CA,Clovis,36.815828,-119.700271,medical,,5.0,19,93611,https://weedmaps.com/deliveries/greenthumb-1,delivery,5597019638,,,,,,,,
554,554,27497,Tiny Weeds,CA,Fresno,36.822965,-119.862372,medical,,4.0,272,93650,https://weedmaps.com/deliveries/tinyweeds,delivery,5594121658,,,,,,,,
555,555,13945,Healthy Hemp Grove,CA,Fresno,36.73376629999999,-119.78458290000002,medical,,4.0,344,93726,https://weedmaps.com/deliveries/healthy-hemp-grove,delivery,(559)270-5119,,,,,,,,
556,556,4620,Guaranteed Flight 559 - Clovis,CA,Clovis,36.808698,-119.69114499999999,medical,,4.0,567,93611,https://weedmaps.com/deliveries/guaranteed-flight-559-clovis-medical-marijuana,delivery,559-288-4044,,10296040810000,,,,,,
557,557,35249,Central Valley Medicinal,CA,Fresno,36.854797999999995,-119.87991699999999,medical,,4.0,78,93726,https://weedmaps.com/deliveries/central-valley-medicinal,delivery,559-835-2152,,,,,,,,
558,558,40695,Bear Mountain Collective,CA,Clovis,36.815919,-119.72628,medical,,4.0,53,93612,https://weedmaps.com/deliveries/bear-mountain-collective,delivery,5595545350,,,,,,,,
559,559,48604,CMB - California Medical Brokers,CA,Fresno,36.757902,-119.80292,medical,Call for verification ***559-903-9071***,4.0,304,93728,https://weedmaps.com/dispensaries/c-m-d-2,storefront,559-903-9071,,,,,,,,
560,560,59203,Next Level Collective,CA,Fresno,36.847411,-119.79776899999999,medical,323 W Cromwell Ave,3.0,25,93711,https://weedmaps.com/dispensaries/next-level-collective-3,storefront,(559) 286-8156,,,,,,,,
561,561,14621,OCP,CA,Fresno,36.808187,-119.85939599999999,medical,,4.0,227,93722,https://weedmaps.com/deliveries/pimpers-paradise,delivery,559-458-9407,,,,,,,,
562,562,565,All Valley Organics,CALIFORNIA (CA),Clovis,36.823244,-119.686631,medical,,4.0,303,93711,https://weedmaps.com/deliveries/all-valley-organics,delivery,(559)862-5672 ,,,,,,,,
563,563,28514,Green Country Meds,CA,Dinuba,36.589736,-119.448724,medical,,4.0,174,93618,https://weedmaps.com/deliveries/green-county-meds,delivery,(559) 393-2983,,,,,,,,
564,564,30764,Valley Extracts Express,Ca,Fresno,36.841578000000005,-119.76970700000001,medical,,5.0,70,93720,https://weedmaps.com/deliveries/just-dab-it,delivery,5592837118,,,,,,,,
565,565,12110,California Chronic Medical Group,CA,Fresno,36.773993,-119.808668,medical,,4.0,420,93705,https://weedmaps.com/deliveries/california-chronic-medical-group,delivery,559-785-7677,,,,,,,,
566,566,38209,LowCostBuds,CA,Clovis,36.779625,-119.77253,medical,,4.0,72,93726,https://weedmaps.com/deliveries/lowcostbuds,delivery,559-307-9463,,,,,,,,
567,567,23835,One OZ 88,CA,Fresno,36.757647,-119.79885900000001,medical,,4.0,211,93650,https://weedmaps.com/deliveries/1-oz-88,delivery,559-442-9498,,,,,601013404.0,,,
568,568,21989,Central Valley Alternative,CA,Dinuba,36.54548,-119.37740500000001,medical,,4.0,151,93618,https://weedmaps.com/deliveries/central-valley-alternative-2,delivery,800- 976-2406,,,,,,,,
569,569,23515,Valley Botanicals,CA,Sanger,36.70681,-119.565262,medical,,4.0,60,93657,https://weedmaps.com/deliveries/valley-botanicals,delivery,559-207-6981,,,,,,,,
570,570,31290,Sundae Driverz,CA,Clovis,36.815828,-119.70903500000001,medical,,4.0,145,93720,https://weedmaps.com/deliveries/sundae-driverz,delivery,5595546342,,,,,,,,
571,571,8865,The Valleys Finest,CA,Fresno,36.851779,-119.80518899999998,medical,,4.0,114,93711,https://weedmaps.com/deliveries/the-valleys-finest-2-2,delivery,559-575-5554,,,,,,,,
572,572,27225,CG SOLUTIONS,CA,FRESNO,36.778918,-119.79056100000001,medical,,4.0,75,93726,https://weedmaps.com/deliveries/cg-solutions,delivery,5599035427,,,,,,,,
573,573,42350,Lifted Heights Delivery,CA,Fresno,36.851926,-119.774584,medical,,4.0,40,93720,https://weedmaps.com/deliveries/lifted-heights-delivery,delivery,(559) 365-5515,,,,,,,,
574,574,3771,Hempceuticals,CA,Fresno,36.837376,-119.75060500000001,medical,,4.0,69,93726,https://weedmaps.com/deliveries/hempceuticals,delivery,559-412-6078,,,,,,,,
575,575,28604,Top Shelf,CA,Fresno,36.845378000000004,-119.790669,medical,,4.0,131,93725,https://weedmaps.com/deliveries/top-shelf-14,delivery,559-349-0109,,,,,,,,
576,576,29306,Top Shelf,CA,Clovis,36.728559000000004,-119.700006,medical,,4.0,49,93611,https://weedmaps.com/deliveries/top-shelf-a890de0e-8c32-494b-b54a-645c03693681,delivery,559-349-0109,,,,,,,,
577,577,41551,Gods Gift,CA,Fresno,36.750483,-119.736379,medical,,4.0,41,93702,https://weedmaps.com/deliveries/gods-gift-2,delivery,559-571-2119,,,,,,,,
578,578,29648,The Stimulater Express - Selma,CA,Selma,36.576312,-119.622801,medical,,4.0,20,93662,https://weedmaps.com/deliveries/the-stimulater-express-porterville,delivery,5593417308,,,,,,,,
579,579,33993,Instant ReLeaf Delivery,CA,Clovis,36.804075,-119.74752,medical,,4.0,94,93611,https://weedmaps.com/deliveries/instant-releaf-delivery-2,delivery,(559) 999-1801,,,,,,,,
580,580,27499,Tiny Weeds,CA,Clovis,36.806453000000005,-119.77603799999999,medical,,4.0,115,93611,https://weedmaps.com/deliveries/tiny-weeds-2,delivery,5594121658,,,,,,,,
581,581,29843,Green Stop Inc.,CA,Selma,36.567091999999995,-119.619902,medical,,4.0,33,93662,https://weedmaps.com/deliveries/green-stop-inc,delivery,559-786-8501,,,,,,,,
582,582,9111,24/7 Heaven,CA,Clovis,36.823190000000004,-119.73301000000001,medical,,4.0,196,93740,https://weedmaps.com/deliveries/24-7-heaven-25,delivery,559-217-3161,,,,,,,,
583,583,28834,Top Shelf,CA,Madera,36.966609999999996,-119.893833,medical,,4.0,28,93636,https://weedmaps.com/deliveries/top-shelf-16,delivery,(559) 349-0109,,,,,,,,
584,584,33990,Instant ReLeaf Delivery,CA,Fresno,36.834249,-119.854629,medical,,4.0,84,93650,https://weedmaps.com/deliveries/instant-releaf-delivery,delivery,(559) 999-1801,,,,,,,,
585,585,29305,Top Shelf,CA,Fresno,36.821831,-119.88068100000001,medical,,4.0,54,93725,https://weedmaps.com/deliveries/top-shelf-e88661db-168f-4996-bf3f-06ea54b883d7,delivery, 559-349-0109,,,,,,,,
586,586,29030,The Stimulater Express - Dinuba,CA,Dinuba,36.547816,-119.404099,medical,,4.0,19,93618,https://weedmaps.com/deliveries/the-stimulater-express-c2e932b5-5637-4a79-99f7-753926fd5fca,delivery,(559)341-7308,,,,,,,,
587,587,45901,Herb N Terp Farms,CALIFORNIA,Dinuba,36.55482,-119.39060800000001,medical,,5.0,11,93618,https://weedmaps.com/deliveries/herb-n-terp-farms-2,delivery,559-397-6052,,,,,,,,
588,588,27498,Tiny Weeds,CA,Clovis,36.823015999999996,-119.71888999999999,medical,,4.0,160,93611,https://weedmaps.com/deliveries/tiny-weeds,delivery,5594121658,,,,,,,,
589,589,9110,24/7 Heaven,CA,Fresno,36.852193,-119.79101899999999,medical,,4.0,169,93711,https://weedmaps.com/deliveries/24-7-heaven,delivery,5592173161,,,,,,,,
590,590,44488,Greenthumb - Fresno,CA,Fresno,36.765104,-119.790627,medical,,4.0,10,93727,https://weedmaps.com/deliveries/greenthumb-fresno,delivery,(559)5780808,,,,,,,,
591,591,45464,Green Crown,California,Fresno,36.824016,-119.80758200000001,medical,,5.0,8,93710,https://weedmaps.com/deliveries/greencrown,delivery,559-216-5659,,,,,,,,
593,593,45650,Maryjane 559,California,Fresno,36.855973,-119.7873,medical,,5.0,6,93720,https://weedmaps.com/deliveries/maryjane-559-2,delivery,(559)412-3104,,,,,,,,
594,594,43876,Cali Plug,California,Fresno,36.769276,-119.75923700000001,medical,,4.0,11,93705,https://weedmaps.com/deliveries/cali-plug,delivery,(559)293-1099,,,,,,,,
595,595,40157,911 Emergency Medical Marijuana Delivery,California,Fresno,36.758489000000004,-119.81849,medical,,4.0,20,93744,https://weedmaps.com/deliveries/911-emergency-medical-marijuana-delivery,delivery,559 217 7774,,,,,,,,
596,596,43113,Bear Mountain Collective,CA,Fresno,36.794015,-119.85341100000001,medical,,3.0,29,93722,https://weedmaps.com/deliveries/bear-mountain-collective-2,delivery,5595545350,,,,,,,,
597,597,45519,Planet Grapes,CA,Madera,36.958263,-120.049072,medical,,5.0,4,93637,https://weedmaps.com/deliveries/planet-grapes-2,delivery,7025041227,,,,,,,,
598,598,46383,Slippin Jimmy Farms,California,Clovis,36.837410999999996,-119.713481,medical,,5.0,3,93619,https://weedmaps.com/deliveries/slippin-jimmy-farms,delivery,559-593-1122,,,,,,,,
599,599,45465,Green Crown,California,Clovis,36.837705,-119.729703,medical,,5.0,2,93710,https://weedmaps.com/deliveries/greencrown-2,delivery,559-216-5659,,,,,,,,
600,600,44919,Godtree,CA,Fresno,36.79363,-119.89327800000001,medical,,5.0,1,93722,https://weedmaps.com/deliveries/godtree-3,delivery,5592143747,,,,,,,,
604,604,44735,High Quality Cannabis Collective,CA,Fresno,36.750215000000004,-119.82592,medical,,2.0,13,92650,https://weedmaps.com/deliveries/high-quality-cannabis-collective-fresno,delivery,559) 343-9519,,,,,,,,
610,610,16506,Green Side Collective,CA,Antelope Valley,34.674439,-118.13280900000001,medical,,4.0,442,93501,https://weedmaps.com/deliveries/green-side-collective,delivery,(661)-609-7455 ,,,,,,,,
611,611,20692,AV Remedies Delivery,CA,Lancaster,34.66072,-118.15311200000001,medical,,4.0,402,93534,https://weedmaps.com/deliveries/av-remedies-delivery,delivery,661-948-8789,,,,,,,,
612,612,41546,All Green Delivery,CA,Lancaster,34.689345,-118.135301,medical,,4.0,15,93534,https://weedmaps.com/deliveries/green-side-collective-4,delivery,661494-5873,,,,,,,,
614,614,33478,Herbal Express,CA,Palmdale,34.594424,-118.12983,medical,,4.0,175,93550,https://weedmaps.com/deliveries/herbal-express,delivery,661-361-8785,,,,,,,,
615,615,51951,5 Gramz Stop,CA,Rosamond,34.863555,-118.16343400000001,medical,2949 Sierra Highway,4.0,1596,93560,https://weedmaps.com/dispensaries/5-gramz-stop,storefront,(661) 558-6055,,,,,,,,
616,616,45941,Munchies,California,Littlerock,34.583153,-118.121443,medical,,5.0,9,93543,https://weedmaps.com/deliveries/munchies-3,delivery,6615835762,,,,,,,,
617,617,24775,The GreenHouse Delivery,CA,Lancaster,34.674862,-118.14787700000001,medical,,4.0,400,93534,https://weedmaps.com/deliveries/the-greenhouse-delivery,delivery,661-547-5909,,,,,,,,
619,619,45863,Valley's Finest Caregivers,CA,Lancaster,34.660333,-118.174575,medical,,4.0,28,93536,https://weedmaps.com/deliveries/valley-s-finest-caregivers-3,delivery,661-468-0410,,,,,,,,
620,620,34627,Weed On Wheels,CA,Quartz Hill,34.632796,-118.213724,medical,,4.0,206,93536,https://weedmaps.com/deliveries/weed-on-wheels-6,delivery,661-494-3234,,,,,,,,
621,621,6542,OG Connection,CA,Antelope Valley,34.631147999999996,-118.16519299999999,medical,,4.0,435,93536,https://weedmaps.com/deliveries/og-connection-2,delivery,661-776-0196 ,,,,,,,,
622,622,46537,Black Sheep Cannabis,CA,Antelope Valley,34.695083000000004,-118.10349199999999,medical,,0.0,0,93536,https://weedmaps.com/deliveries/black-sheep-cannabis,delivery,,,,,,,,,
623,623,43865,Top Herbal Connection,CA,Antelope Valley,34.623712,-118.20116200000001,medical,,5.0,54,93536,https://weedmaps.com/deliveries/top-herbal-connection,delivery,(661) 488-8499,,,,,,,,
624,624,48423,AOC American Original Collective,CA,Rosamond,34.8641446,-118.16340749999999,medical,"1737 Locust St, Unit C1",4.0,610,93560,https://weedmaps.com/dispensaries/aoc-american-organics-club,storefront,661-470-0429,,,,,,,,
625,625,39944,The Plum Tree Collective,California,Rosamond,34.862809000000006,-118.163306,medical,2873 Sierra Hwy.,4.0,667,93560,https://weedmaps.com/dispensaries/the-plum-tree-collective,storefront,661-256-2258,,,,,,,,
626,626,43973,TVC,CA,Rosamond,34.861009,-118.16436499999999,medical,2753 Diamond st,4.0,409,93560,https://weedmaps.com/dispensaries/tvc,storefront,(661) 256-2077,,,,,,,,
627,627,44097,AV Remedies,ca,Lancaster,34.733613,-118.14036899999999,medical,515 West Avenue G,4.0,978,93534-35-36-551,https://weedmaps.com/dispensaries/a-v-remedies,storefront,(661)-383-8727,,,,,,,,
628,628,8270,Antelope Valley Diamond Collective,CA,Rosamond,34.845191,-118.160344,medical,1733 Sierra Highway,4.0,1535,93560,https://weedmaps.com/dispensaries/antelope-valley-diamond-collective,storefront,661-256-7753,,,,,,,,
629,629,36876,VapeandBake,CA,Rosamond,34.859565,-118.16293200000001,medical,2689 Sierra Highway,4.0,333,93560,https://weedmaps.com/dispensaries/vapeandbake,storefront,661-256-2415,,,,,,,,
630,630,47644,Big O Relief,CA,Mojave,35.068858,-118.174195,medical,"16940 State Highway 14, Suite K",4.0,118,93501,https://weedmaps.com/dispensaries/big-o-relief-2-2,storefront,661-450-5788,,,,,,,,
631,631,59068,The Green Empire - Antelope Valley,CA,Rosamond,34.8634,-118.159921,medical,1379 Sierra Hwy,3.0,21,93560,https://weedmaps.com/dispensaries/the-green-empire-antelope-valley,storefront,6612562989,,,,,,,,
632,632,2169,Antelope Valley Delivery,CA,Lancaster,34.660268,-118.19238700000001,medical,,4.0,502,93536,https://weedmaps.com/deliveries/antelope-valley-delivery,delivery,661-874-4914,,,,,,,,
633,633,20103,aVIP,CA,Palmdale,34.587431,-118.094274,medical,,4.0,283,93550,https://weedmaps.com/deliveries/av-i-p,delivery,(661) 208-1098,,,,,,,,
634,634,8955,Antelope Valley Discount Delivery,CA,Lancaster,34.676795,-118.076922,medical,,4.0,196,93535,https://weedmaps.com/deliveries/antelope-discount-delivery,delivery,6615403923,,,,,,,,
635,635,26802,The Stash Spot,CA,Helendale,34.731631,-117.341746,medical,,4.0,96,92342,https://weedmaps.com/deliveries/the-stash-spot-3,delivery,(760) 590-8850,,,,,,,,
636,636,11249,Antelope Valley Discount Delivery,CA,Palmdale,34.689388,-118.18381699999999,medical,,4.0,132,93550,https://weedmaps.com/deliveries/antelope-valley-discount-delivery-2,delivery,6615403923,,,,,,,,
637,637,5495,OL' Hippie 420,Ca,Palmdale,34.601886,-118.14766499999999,medical,,4.0,268,92648,https://weedmaps.com/deliveries/ol-hippie-420,delivery,562-249-8077,,,,,,,,
638,638,22029,SummerBreezeDeliveries,CA,Palmdale,34.572595,-118.12050500000001,medical,,4.0,428,93550,https://weedmaps.com/deliveries/summerbreezedeliveries,delivery,661-576-0491,,,,,,,,
639,639,2619,Lancaster Delivery,Ca,Lancaster,34.704007,-118.11373600000002,medical,,4.0,44,93534,https://weedmaps.com/deliveries/antelope-valley-delivery-2,delivery,661-902-0003,,,,,,,,
640,640,32291,Meds on Demand,CA,Antelope Valley,34.645645,-118.192353,medical,,4.0,131,93550,https://weedmaps.com/deliveries/meds-on-demand-delivery,delivery,818-747-6485,,,,,,,,
641,641,24246,Green Side Collective,CA,California City,35.125902,-117.985619,medical,,4.0,100,93505,https://weedmaps.com/deliveries/green-side-collective-2,delivery,661-609-7455,,,,,,,,
642,642,32739,AV Flower Delivery,CA,Lancaster,34.697019,-118.148054,medical,,4.0,63,93534,https://weedmaps.com/deliveries/av-flower-delivery,delivery,6618884677,,,,,,,,
643,643,42066,Bandit Delivery,CA,Palmdale,34.572994,-118.06726200000001,medical,,4.0,62,93550,https://weedmaps.com/deliveries/foreign-resources,delivery,8189605006,,,,,,,,
644,644,42146,Weedidit 420 Delivery,CA,Lake Los Angeles,34.616687,-117.82703799999999,medical,,4.0,25,93535,https://weedmaps.com/deliveries/weedidit-420-delivery,delivery,661-485-9076,,,,,,,,
645,645,45421,TVC Express #2,ca,Quartz Hill,34.645720000000004,-118.21840800000001,medical,,0.0,0,93536,https://weedmaps.com/deliveries/tvc-express-2,delivery,,,,,,,,,
646,646,45422,TVC Express #3,CA,Lancaster,34.675127,-118.165644,medical,,0.0,0,93536,https://weedmaps.com/deliveries/tvc-express-3,delivery,,,,,,,,,
655,655,774,A Cut Above Deliveries,CA,Walnut Creek,37.917355,-122.06581200000001,hybrid,,4.0,114,94597,https://weedmaps.com/deliveries/a-cut-above-delivery,delivery,6503962883,,,,,,,,
656,656,15574,Bayshore now MINT XPRESS - Campbell,CA,Campbell,37.292187,-121.960183,hybrid,,4.0,28,95128,https://weedmaps.com/deliveries/mint-xpress,delivery,(408) 648-2253,,,,,,,,
660,660,40319,K&R Delivery,CA,Hayward,37.661929,-122.057999,medical,,4.0,26,94544,https://weedmaps.com/deliveries/k-and-r-delivery,delivery,510-592-8998,,,,,,,,
661,661,42997,The Natural Fix - Pleasant Hill,CA,Pleasant Hill,37.934539,-122.063374,medical,,3.0,7,94523,https://weedmaps.com/deliveries/the-natural-fix-martinez,delivery,844-464-7420,,,,,,,,
666,666,9686,Empire powered by Safe Access. - Stockton,CA,Stockton,37.954863,-121.25198799999998,hybrid,,4.0,1686,95205,https://weedmaps.com/deliveries/supply-co,delivery,209-589-6475,,,,,,,,
671,671,1288,TREES - LIVERMORE,CA,Livermore,37.712272999999996,-121.72122399999999,medical,,4.0,67,94551,https://weedmaps.com/deliveries/trees,delivery,(888)263-2921,,,,,,,,
672,672,5503,Healthy Greens - Danville,Ca,San Ramon,37.779740000000004,-121.977144,medical,,4.0,99,94583,https://weedmaps.com/deliveries/healthy-greens,delivery,(510)240-2437,,,,,,,,
675,675,7819,Bayshore now MINT XPRESS - Mountain View,CA,Mountain View,37.432494,-122.146631,hybrid,,4.0,33,94043,https://weedmaps.com/deliveries/mint-2,delivery,6505164540,,,,,,,,
681,681,41210,A Cut Above Deliveries,CA,Hayward,37.671933,-122.065106,hybrid,,2.0,10,94583,https://weedmaps.com/deliveries/a-cut-above-deliveries-7,delivery,9253223797,,,,,,,,
684,684,18351,Kizzle,CA,Oakland,37.828814,-122.2255,medical,,4.0,211,94602,https://weedmaps.com/deliveries/kizzle,delivery,(510) 485-1313,,,,,,,,
688,688,24508,Kush Rush Exotics,CA,Cupertino,37.31365,-122.001044,medical,,4.0,54,95014,https://weedmaps.com/deliveries/kush-rush-delivery,delivery,408-759-9163,,,,,,,,
691,691,4709,TREES - LATHROP,CA,Lathrop,37.808471000000004,-121.30161499999998,medical,,4.0,24,95330,https://weedmaps.com/deliveries/trees-by-healthy-living-stockton,delivery,888-263-2921,,,,,,,,
693,693,807,A Cut Above Deliveries,CA,Dublin,37.709909,-121.87264099999999,hybrid,,4.0,63,94583,https://weedmaps.com/deliveries/a-cut-above-delivery-2,delivery,9253223797,,,,,,,,
695,695,11465,Le Shoppe,CA,San Jose,37.329584999999994,-121.882818,medical,,4.0,40,95118,https://weedmaps.com/deliveries/abraxas-delivery-2-7,delivery,408-858-2422,,,,,,,,
699,699,41209,A Cut Above Deliveries,CA,Fremont,37.480229,-121.91793899999999,hybrid,,5.0,3,94583,https://weedmaps.com/deliveries/a-cut-above-deliveries,delivery,9253223797,,,,,,,,
700,700,42253,A Cut Above Deliveries,CA,Danville,37.819609,-121.98257199999999,hybrid,,3.0,2,94506,https://weedmaps.com/deliveries/a-cut-above-deliveries-8,delivery,9253223797,,,,,,,,
702,702,4965,Bayshore now MINT XPRESS - San Jose,CA,Campbell,37.396811,-121.87474499999999,hybrid,,4.0,261,95128,https://weedmaps.com/deliveries/mint-alternative-healing,delivery,(408) 484-4644,,,,,,,,
703,703,1399,TREES - TRACY,CA,Tracy,37.710446999999995,-121.452974,medical,,4.0,244,95376,https://weedmaps.com/deliveries/trees-by-healthy-living,delivery,(888) 263-2921,,,,,,,,
705,705,2398,REDSTONE SERVICE,CA,San Ramon,37.786584999999995,-121.952269,medical,,4.0,30,94583,https://weedmaps.com/deliveries/redstone-service-2-2,delivery,(925) 395-7309,,,,,,,,
707,707,6418,Le Shoppe,CA,Campbell,37.286078,-121.97668,medical,,4.0,30,95008,https://weedmaps.com/deliveries/abraxas-delivery,delivery,408-858-2422,,,,,,,,
713,713,33112,TOP SHELF EXPRESS,CA,Walnut Creek,37.917231,-122.07184099999999,hybrid,,2.0,12,95020,https://weedmaps.com/deliveries/top-shelf-express-walnut-creek,delivery,408-703-4420,,,,,,,,
715,715,16535,M.A.R.S. - Tracy,CA,Tracy,37.706005,-121.42663,medical,,4.0,108,95377,https://weedmaps.com/deliveries/mars,delivery,510-302-5884,,,,,,,,
716,716,772,Mobile420rx - Livermore,CA,Livermore,37.688344,-121.77965900000001,medical,,4.0,80,94551,https://weedmaps.com/deliveries/mobile-420-rx,delivery,925-984-3483,,,,,,,,
717,717,7818,MINT XPRESS - Santa Clara,CA,Santa Clara,37.340072,-121.940161,hybrid,,4.0,39,94085,https://weedmaps.com/deliveries/mint,delivery,(408) 627-7310,,,,,,,,
719,719,21535,Redstone Service,Ca,Dublin,37.685414,-121.92961299999999,medical,,4.0,13,94568,https://weedmaps.com/deliveries/redstone-service-2-2-2,delivery,925-395-7309,,,,,,,,
724,724,17546,420 Organics - Brentwood,CA,Brentwood,37.965455,-121.77035,medical,,4.0,321,94511,https://weedmaps.com/deliveries/420-organics-421,delivery,(925) 848-8621,,,,,,,,
726,726,16989,Specialty Meds - Tracy,CA,Tracy,37.725344,-121.434649,medical,,4.0,76,95376,https://weedmaps.com/deliveries/specialty-meds-7,delivery,209-237-8932,,,,,,,,
727,727,2878,Mobile420rx - Pleasanton,CA,Pleasanton,37.681948,-121.87573200000001,medical,,4.0,44,94566,https://weedmaps.com/deliveries/mobile420rx-2,delivery,(925) 984-3483,,,,,,,,
730,730,2748,Redstone Service,CA,Walnut Creek,37.924664,-122.09080700000001,medical,,4.0,41,94520,https://weedmaps.com/deliveries/redstone-service-2-5,delivery,925-395-7309,,,,,,,,
735,735,14455,Tweedys,CA,Pleasanton,37.658279,-121.89706799999999,medical,,4.0,61,94566,https://weedmaps.com/deliveries/tweedys,delivery,925-344-5366,,,,,,,,
736,736,16917,Heals on Wheels- Union City,CA,Union City,37.542361,-121.989331,medical,,4.0,50,94587,https://weedmaps.com/deliveries/510-healing-511,delivery,(510) 258-8058,,,,,,,,
738,738,11783,Four Horsemen Wellness - Livermore,CA,Livermore,37.67875,-121.770182,medical,,4.0,35,94551,https://weedmaps.com/deliveries/four-horsemen-wellness,delivery,925-621-9927,,,,,,,,
739,739,37442,Healthy Greens - Walnut Creek,CA,Walnut Creek,37.894425,-122.05384,medical,,5.0,10,94596,https://weedmaps.com/deliveries/healthy-greens-7,delivery,(510)240-2437,,,,,,,,
740,740,31780,Ghost Collective,CA,San Jose,37.306106,-121.92274499999999,medical,,3.0,168,95112,https://weedmaps.com/deliveries/ghost-collective,delivery,510-602-1549,,,,,,,,
743,743,46117,California Patients Club,California,Santa Clara,37.35,-121.96,medical,,0.0,0,95050,https://weedmaps.com/deliveries/california-patients-club-920,delivery,,,,,,,,,
744,744,4677,The 1 Delivery Service - Pleasanton,CA,Pleasanton,37.694067,-121.878464,medical,,4.0,100,94566,https://weedmaps.com/deliveries/the-1-delivery-service,delivery,925-705-0831,,,,,,,,
746,746,51731,Indigenous Blendz,CA,Benton,37.800311,-118.5294,medical,555 Yellow Jacket Road,4.0,17,93512,https://weedmaps.com/dispensaries/indigenous-blendz,storefront,760-937-3801,,,,,,,,
751,751,61657,Northstar Marysville,CA,Marysville,39.14774,-121.58618999999999,medical,1109 Chestnut St. Suite 1,0.0,0,95901,https://weedmaps.com/dispensaries/northstar-marysville,storefront,,,,,,,,,
760,760,42995,The Natural Fix - Vacaville,CA,Vacaville,38.349794,-121.980282,medical,,3.0,13,95687,https://weedmaps.com/deliveries/the-natural-fix-vacaville,delivery,844-464-7420,,,,,,,,
764,764,8445,Butterfly Holistic,CA,Olivehurst,39.102615,-121.550712,medical,,4.0,398,95961,https://weedmaps.com/deliveries/butterfly-holistic,delivery,530-777-3832,,,,,,,,
766,766,34411,JWC Deliveries -Recreational,CA,Davis,38.542894,-121.76075700000001,hybrid,,4.0,54,95616,https://weedmaps.com/deliveries/jade-wellness-center-3,delivery,916-968-6292,,M9180000067,,,,,,
769,769,42993,The Natural Fix - Fairfield,CA,Fairfield,38.243588,-122.052277,medical,,3.0,10,94533,https://weedmaps.com/deliveries/the-natural-fix-fairfield,delivery,844-464-7420,,,,,,,,
775,775,27114,Lings Candy Shop,CA,Elk Grove,38.438212,-121.391989,medical,,4.0,180,95814,https://weedmaps.com/deliveries/ling-s-candy-shop-3,delivery,9165995931,,,,,,,,
778,778,19483,NorCal Holistics,CA,Arden Arcade,38.617553,-121.36450400000001,medical,,4.0,26,95821,https://weedmaps.com/deliveries/norcal-holistic-s-3,delivery,(916) 993-5361,,A9180000093 ,,,,M9180000077 ,,
781,781,43867,Paradise,CA,Citrus Heights,38.689906,-121.304204,medical,,4.0,45,95621,https://weedmaps.com/deliveries/paradise-citrus-heights,delivery,9162808529,,,,,,,,
787,787,1005,Greens Trees Collective,Ca,Yuba City,39.151496,-121.63531699999999,medical,,4.0,303,95991,https://weedmaps.com/deliveries/greens-trees-collective-2,delivery,530-695-7523,,,,,,,,
789,789,40494,Organicc Matters,CA,Sacramento,38.423581,-121.41818400000001,medical,,4.0,62,95842,https://weedmaps.com/deliveries/organicc-matters,delivery,9162716901,,,,,,,,
793,793,3994,City Of Trees,CA,Sacramento,38.539424,-121.449781,medical,,4.0,402,95825,https://weedmaps.com/deliveries/city-of-trees-collective-2-2,delivery,916-882-2469,,,,,,,,
798,798,45236,VHHC Delivery - Fairfield,CA,Fairfield,38.26,-122.06,medical,,1.0,2,94533,https://weedmaps.com/deliveries/vhhc-delivery-fairfield,delivery, (707) 652-5018,,,,,,,,
800,800,7012,Emerald Clouds,California,Solano County,38.365061,-121.96486000000002,medical,,4.0,266,94534,https://weedmaps.com/deliveries/emerald-clouds,delivery,(707) 880-9388,,,,,,,,
802,802,23621,MaryJane's Medical Center,CA,Marysville,39.121818,-121.56615,medical,,4.0,264,95901,https://weedmaps.com/deliveries/patients-unite,delivery,5306325706,,,,,,,,
805,805,45034,Back Door Connect,California,Carmichael,38.595341999999995,-121.346043,medical,,5.0,8,95608,https://weedmaps.com/deliveries/back-door-connect,delivery,916-990-7713,,,,,,,,
807,807,9216,Green Centaur - Vacaville,CA,Vacaville,38.359227000000004,-122.00471999999999,medical,,4.0,165,95688,https://weedmaps.com/deliveries/green-centaur,delivery,7078805555,,,,,,,,
808,808,30771,Meditation Meds,CA,Roseville,38.744104,-121.313726,medical,,4.0,108,92832,https://weedmaps.com/deliveries/meditation-meds-4,delivery,9166637138,,,,,,,,
809,809,2204,Citadel Alternative Care - South Sacramento,CA,Sacramento,38.461890999999994,-121.38311599999999,medical,,4.0,246,95826,https://weedmaps.com/deliveries/citadel-galt,delivery,844-778-6741  ,,,,,,,,
810,810,28854,Meditation Meds,CA,Arden-Arcade,38.611472,-121.364515,medical,,4.0,88,95821,https://weedmaps.com/deliveries/meditation-meds,delivery,9166637138,,,,,,,,
812,812,2497,Tree4Life Mobile Dispensary,CA,Fairfield,38.264511999999996,-122.072543,medical,,4.0,56,94534,https://weedmaps.com/deliveries/tree4life-mobile-dispensary-2,delivery,(707) 419 2934,,,,,,,,
814,814,24716,Premier Budz - Fairfield,CA,Fairfield,38.258247,-122.024977,medical,,4.0,190,94533,https://weedmaps.com/deliveries/premier-budz,delivery,(408) 444-0898,,,,,,,,
815,815,29398,Black Elephant,CA,Elk Grove,38.425726,-121.37753300000001,medical,,4.0,83,95624,https://weedmaps.com/deliveries/black-elephant,delivery,916-860-7180,,,,,,,,
817,817,43632,Go Green,CA,Roseville,38.770154999999995,-121.30034099999999,medical,,5.0,22,95678,https://weedmaps.com/deliveries/go-green-roseville,delivery,916-547-0013,,,,,,,,
818,818,2481,Tree4Life Mobile Dispensary,CA,Vacaville,38.355272,-121.979523,medical,,4.0,38,95687,https://weedmaps.com/deliveries/tree4life-mobile-dispensary,delivery,(707) 419 2934,,,,,,,,
819,819,30769,Meditation Meds,CA,Sacramento,38.569684,-121.495102,medical,,4.0,8,95811,https://weedmaps.com/deliveries/meditation-meds-3,delivery,9166637138,,,,,,,,
821,821,28250,Green Frog,CA,Sacramento/Natomas,38.656071000000004,-121.507222,hybrid,,4.0,187,95835,https://weedmaps.com/deliveries/green-frog-2,delivery,9164107839,,,,,,,,
822,822,2223,Citadel Alternative Care - Elk Grove,CA,Elk Grove,38.44511,-121.405828,medical,,4.0,340,95758,https://weedmaps.com/deliveries/citadel-alternative-care-elk-grove,delivery,844-778-6741,,,,,,,,
823,823,28985,Meditation Meds,CA,Citrus Heights,38.721711,-121.36457,medical,,4.0,76,95831,https://weedmaps.com/deliveries/meditation-meds-2,delivery,9166637138,,,,,,,,
824,824,22082,Gaia Xpress,CA,Roseville,38.770177000000004,-121.269377,medical,,4.0,82,95678,https://weedmaps.com/deliveries/gaia-express-7,delivery,9162560431,,,,,,,,
825,825,14131,Top Shelf Delivery Service / CBD Wellness,CA,Yuba City,39.112781,-121.63456799999999,medical,,3.0,88,95991,https://weedmaps.com/deliveries/topshelfextracts,delivery,530-701-3743,,,,,,,,
